{
  "training_data": [
    {
      "nom_prenom": "Madame REYTAN Catherine",
      "date": "02.01.2025",
      "heure_depart_aller": "09:15",
      "heure_depart_retour": "16:00",
      "type_course": "A/R",
      "adresse_depart": "Chemin des Ramiers 9, 1245 Collonge-Bellerive",
      "adresse_arrivee": "Route d'Hermance 347, 1247 Anières",
      "conducteur_aller": "D.D",
      "conducteur_retour": "D.D",
      "conducteur_aller_name": "Driss",
      "conducteur_retour_name": "Driss",
      "conducteur_complet": "D.D",
      "ligne_originale": 2,
      "feuille_source": "Janvier",
      "geocoding_depart": {
        "address": "Chem. des Ramiers 9, 1245 Collonge-Bellerive, Switzerland",
        "lat": 46.2612114,
        "lng": 6.211791499999999,
        "status": "OK"
      },
      "geocoding_arrivee": {
        "address": "Rte d'Hermance 347, 1247 Anières, Switzerland",
        "lat": 46.2806955,
        "lng": 6.226785,
        "status": "OK"
      }
    },
    {
      "nom_prenom": "Monsieur LECOULTRE Denis",
      "date": "02.01.2025",
      "heure_depart_aller": "10:00",
      "heure_depart_retour": null,
      "type_course": "A/R",
      "adresse_depart": "Chemin des Courbes 9, 1247 Anières",
      "adresse_arrivee": "Rue Gabrielle-Perret-Gentil 4, 1205 Genève",
      "conducteur_aller": "Y.L",
      "conducteur_retour": "Y.L",
      "conducteur_aller_name": "Y.L",
      "conducteur_retour_name": "Y.L",
      "conducteur_complet": "Y.L",
      "ligne_originale": 3,
      "feuille_source": "Janvier",
      "geocoding_depart": {
        "address": "Chem. des Courbes 9, 1247 Anières, Switzerland",
        "lat": 46.2800252,
        "lng": 6.229706999999999,
        "status": "OK"
      },
      "geocoding_arrivee": {
        "address": "Rue Gabrielle-Perret-Gentil 4, 1205 Genève, Switzerland",
        "lat": 46.1931277,
        "lng": 6.1491963,
        "status": "OK"
      }
    },
    {
      "nom_prenom": "Monsieur BYRNE Thomas",
      "date": "02.01.2025",
      "heure_depart_aller": "10:00",
      "heure_depart_retour": null,
      "type_course": "A/R",
      "adresse_depart": "Chemin des Courbes 9, 1247 Anières",
      "adresse_arrivee": "Rue Gabrielle-Perret-Gentil 4, 1205 Genève",
      "conducteur_aller": "D.D",
      "conducteur_retour": "D.D",
      "conducteur_aller_name": "Driss",
      "conducteur_retour_name": "Driss",
      "conducteur_complet": "D.D",
      "ligne_originale": 4,
      "feuille_source": "Janvier",
      "geocoding_depart": {
        "address": "Chem. des Courbes 9, 1247 Anières, Switzerland",
        "lat": 46.2800252,
        "lng": 6.229706999999999,
        "status": "OK"
      },
      "geocoding_arrivee": {
        "address": "Rue Gabrielle-Perret-Gentil 4, 1205 Genève, Switzerland",
        "lat": 46.1931277,
        "lng": 6.1491963,
        "status": "OK"
      }
    },
    {
      "nom_prenom": "Madame MENETREY Sylvie",
      "date": "02.01.2025",
      "heure_depart_aller": "11:15",
      "heure_depart_retour": null,
      "type_course": "A/R",
      "adresse_depart": "Avenue Bois-de-la-Chapelle 69, 1213 Onex",
      "adresse_arrivee": "Chemin d l'Echo 3, 1213 Onex",
      "conducteur_aller": "Y.L",
      "conducteur_retour": "Y.L",
      "conducteur_aller_name": "Y.L",
      "conducteur_retour_name": "Y.L",
      "conducteur_complet": "Y.L",
      "ligne_originale": 5,
      "feuille_source": "Janvier",
      "geocoding_depart": {
        "address": "Av. du, Av. Bois-de-la-Chapelle 69, 1213 Onex, Switzerland",
        "lat": 46.18868310000001,
        "lng": 6.102137099999999,
        "status": "OK"
      },
      "geocoding_arrivee": {
        "address": "Chem. Daniel-Ihly, 1213 Lancy, Switzerland",
        "lat": 46.1959133,
        "lng": 6.1153264,
        "status": "OK"
      }
    },
    {
      "nom_prenom": "Madame HAUSER Ariane",
      "date": "02.01.2025",
      "heure_depart_aller": "14:45",
      "heure_depart_retour": null,
      "type_course": "A/R",
      "adresse_depart": "Chemin des Courbes 9, 1247 Anières",
      "adresse_arrivee": "Route de Chêne 110, 1224 Chêne-Bougeries",
      "conducteur_aller": "D.D",
      "conducteur_retour": "D.D",
      "conducteur_aller_name": "Driss",
      "conducteur_retour_name": "Driss",
      "conducteur_complet": "D.D",
      "ligne_originale": 6,
      "feuille_source": "Janvier",
      "geocoding_depart": {
        "address": "Chem. des Courbes 9, 1247 Anières, Switzerland",
        "lat": 46.2800252,
        "lng": 6.229706999999999,
        "status": "OK"
      },
      "geocoding_arrivee": {
        "address": "Rte de Chêne 110, 1224 Chêne-Bougeries, Switzerland",
        "lat": 46.1983893,
        "lng": 6.1823283,
        "status": "OK"
      }
    },
    {
      "nom_prenom": "Madame ROD Céline",
      "date": "02.01.2025",
      "heure_depart_aller": "19:30",
      "heure_depart_retour": null,
      "type_course": "A",
      "adresse_depart": "Rue Alberto-Giacometti 23, 1218 Grand-Saconnex",
      "adresse_arrivee": "Chemin du Pré-du-Couvent 3b, 1224 Chêne-Bougeries",
      "conducteur_aller": "Y.L",
      "conducteur_retour": "Y.L",
      "conducteur_aller_name": "Y.L",
      "conducteur_retour_name": "Y.L",
      "conducteur_complet": "Y.L",
      "ligne_originale": 7,
      "feuille_source": "Janvier",
      "geocoding_depart": {
        "address": "Rue Alberto Giacometti 23, 1218 Le Grand-Saconnex, Switzerland",
        "lat": 46.2277962,
        "lng": 6.118011999999999,
        "status": "OK"
      },
      "geocoding_arrivee": {
        "address": "Chem. du Pré-du-Couvent 3b, 1224 Chêne-Bougeries, Switzerland",
        "lat": 46.2032549,
        "lng": 6.1835626,
        "status": "OK"
      }
    },
    {
      "nom_prenom": "Madame MENETREY Sylvie",
      "date": "03.01.2025",
      "heure_depart_aller": "08:15",
      "heure_depart_retour": null,
      "type_course": "A/R",
      "adresse_depart": "Avenue Bois-de-la-Chapelle 69, , 1213 Onex",
      "adresse_arrivee": "Rue des Bains 35, 1205 Genène",
      "conducteur_aller": "D.D",
      "conducteur_retour": "D.D",
      "conducteur_aller_name": "Driss",
      "conducteur_retour_name": "Driss",
      "conducteur_complet": "D.D",
      "ligne_originale": 8,
      "feuille_source": "Janvier",
      "geocoding_depart": {
        "address": "Av. du, Av. Bois-de-la-Chapelle 69, 1213 Onex, Switzerland",
        "lat": 46.18868310000001,
        "lng": 6.102137099999999,
        "status": "OK"
      },
      "geocoding_arrivee": {
        "address": "Rue des Bains 35, 1205 Genève, Switzerland",
        "lat": 46.1988797,
        "lng": 6.1370416,
        "status": "OK"
      }
    },
    {
      "nom_prenom": "Madame REYTAN Catherine",
      "date": "03.01.2025",
      "heure_depart_aller": "09:15",
      "heure_depart_retour": "16:00",
      "type_course": "A/R",
      "adresse_depart": "Chemin des Ramiers 9, 1245 Collonge-Bellerive",
      "adresse_arrivee": "Route d'Hermance 347, 1247 Anières",
      "conducteur_aller": "D.D",
      "conducteur_retour": "D.D",
      "conducteur_aller_name": "Driss",
      "conducteur_retour_name": "Driss",
      "conducteur_complet": "D.D",
      "ligne_originale": 9,
      "feuille_source": "Janvier",
      "geocoding_depart": {
        "address": "Chem. des Ramiers 9, 1245 Collonge-Bellerive, Switzerland",
        "lat": 46.2612114,
        "lng": 6.211791499999999,
        "status": "OK"
      },
      "geocoding_arrivee": {
        "address": "Rte d'Hermance 347, 1247 Anières, Switzerland",
        "lat": 46.2806955,
        "lng": 6.226785,
        "status": "OK"
      }
    },
    {
      "nom_prenom": "Monsieur RUEDEN Alexandre",
      "date": "03.01.2025",
      "heure_depart_aller": "09:45",
      "heure_depart_retour": null,
      "type_course": "A/R",
      "adresse_depart": "Chemin des Courbes 9, 1247 Anières",
      "adresse_arrivee": "Rue Gabrielle-Perret-Gentil 4, 1205 Genève",
      "conducteur_aller": "D.D",
      "conducteur_retour": "D.D",
      "conducteur_aller_name": "Driss",
      "conducteur_retour_name": "Driss",
      "conducteur_complet": "D.D",
      "ligne_originale": 10,
      "feuille_source": "Janvier",
      "geocoding_depart": {
        "address": "Chem. des Courbes 9, 1247 Anières, Switzerland",
        "lat": 46.2800252,
        "lng": 6.229706999999999,
        "status": "OK"
      },
      "geocoding_arrivee": {
        "address": "Rue Gabrielle-Perret-Gentil 4, 1205 Genève, Switzerland",
        "lat": 46.1931277,
        "lng": 6.1491963,
        "status": "OK"
      }
    },
    {
      "nom_prenom": "Madame REYHL Inge",
      "date": "03.01.2025",
      "heure_depart_aller": "09:45",
      "heure_depart_retour": null,
      "type_course": "A/R",
      "adresse_depart": "Rue Maunoir 1, 1207 Genève",
      "adresse_arrivee": "Rue Gabrielle-Perret-Gentil 4, 1205 Genève",
      "conducteur_aller": "Y.L",
      "conducteur_retour": "Y.L",
      "conducteur_aller_name": "Y.L",
      "conducteur_retour_name": "Y.L",
      "conducteur_complet": "Y.L",
      "ligne_originale": 11,
      "feuille_source": "Janvier",
      "geocoding_depart": {
        "address": "Rue Maunoir 1, 1207 Genève, Switzerland",
        "lat": 46.2045325,
        "lng": 6.1596011,
        "status": "OK"
      },
      "geocoding_arrivee": {
        "address": "Rue Gabrielle-Perret-Gentil 4, 1205 Genève, Switzerland",
        "lat": 46.1931277,
        "lng": 6.1491963,
        "status": "OK"
      }
    },
    {
      "nom_prenom": "Monsieur BORGEAUD Jean-Daniel",
      "date": "03.01.2025",
      "heure_depart_aller": "13:00",
      "heure_depart_retour": null,
      "type_course": "A",
      "adresse_depart": "Chemin des Courbes 9, 1247 Anières",
      "adresse_arrivee": "Av. J.-D.-Maillard 3, 1217 Meyrin",
      "conducteur_aller": "D.D",
      "conducteur_retour": "D.D",
      "conducteur_aller_name": "Driss",
      "conducteur_retour_name": "Driss",
      "conducteur_complet": "D.D",
      "ligne_originale": 12,
      "feuille_source": "Janvier",
      "geocoding_depart": {
        "address": "Chem. des Courbes 9, 1247 Anières, Switzerland",
        "lat": 46.2800252,
        "lng": 6.229706999999999,
        "status": "OK"
      },
      "geocoding_arrivee": {
        "address": "Av. J.-D.-Maillard 3, 1217 Meyrin, Switzerland",
        "lat": 46.2283656,
        "lng": 6.066995500000001,
        "status": "OK"
      }
    },
    {
      "nom_prenom": "Monsieur ALEXANDRE Pierre",
      "date": "03.01.2025",
      "heure_depart_aller": "13:00",
      "heure_depart_retour": "16:30",
      "type_course": "A/R",
      "adresse_depart": "Chemin Gustave-Rochette 14, 1213 Onex",
      "adresse_arrivee": "Route de Chancy 126, 1213 Onex",
      "conducteur_aller": "Y.L",
      "conducteur_retour": "Y.L",
      "conducteur_aller_name": "Y.L",
      "conducteur_retour_name": "Y.L",
      "conducteur_complet": "Y.L",
      "ligne_originale": 13,
      "feuille_source": "Janvier",
      "geocoding_depart": {
        "address": "EMS Fondation Butini, Chem. Gustave-Rochette 14, 1213 Onex, Switzerland",
        "lat": 46.1823697,
        "lng": 6.101874599999999,
        "status": "OK"
      },
      "geocoding_arrivee": {
        "address": "1213 Onex, Switzerland",
        "lat": 46.1945732,
        "lng": 6.1110751,
        "status": "OK"
      }
    },
    {
      "nom_prenom": "Monsieur Dominique PARISI",
      "date": "05.01.2025",
      "heure_depart_aller": "09:30",
      "heure_depart_retour": null,
      "type_course": "A/R",
      "adresse_depart": "Route d'Hermance 63, 1245 Collonges Bellerive",
      "adresse_arrivee": "Parc-Lipatti 1, 1225 Chêne-Bourg",
      "conducteur_aller": "K.A",
      "conducteur_retour": "K.A",
      "conducteur_aller_name": "Khalid",
      "conducteur_retour_name": "Khalid",
      "conducteur_complet": "K.A",
      "ligne_originale": 14,
      "feuille_source": "Janvier",
      "geocoding_depart": {
        "address": "Rte d'Hermance 63, 1245 Collonge-Bellerive, Switzerland",
        "lat": 46.2494966,
        "lng": 6.2002548,
        "status": "OK"
      },
      "geocoding_arrivee": {
        "address": "1225 Chêne-Bourg, Switzerland",
        "lat": 46.1983343,
        "lng": 6.197185699999999,
        "status": "OK"
      }
    },
    {
      "nom_prenom": "Monsieur ROSAS Alain",
      "date": "05.01.2025",
      "heure_depart_aller": "11:15",
      "heure_depart_retour": "15:00",
      "type_course": "A/R",
      "adresse_depart": "Chemin des Beaux-Champs 7, 1234 Vessy",
      "adresse_arrivee": "Chemin des Beaux-Champs 7, 1234 Vessy",
      "conducteur_aller": "K.A",
      "conducteur_retour": "K.A",
      "conducteur_aller_name": "Khalid",
      "conducteur_retour_name": "Khalid",
      "conducteur_complet": "K.A",
      "ligne_originale": 15,
      "feuille_source": "Janvier",
      "geocoding_depart": {
        "address": "Chem. des Beaux-Champs 7, 1234 Vessy, Switzerland",
        "lat": 46.1784425,
        "lng": 6.1608709,
        "status": "OK"
      },
      "geocoding_arrivee": {
        "address": "Chem. des Beaux-Champs 7, 1234 Vessy, Switzerland",
        "lat": 46.1784425,
        "lng": 6.1608709,
        "status": "OK"
      }
    },
    {
      "nom_prenom": "Madame REYTAN Catherine",
      "date": "06.01.2025",
      "heure_depart_aller": "09:15",
      "heure_depart_retour": "14:00",
      "type_course": "A/R",
      "adresse_depart": "Chemin des Ramiers 9, 1245 Collonge-Bellerive",
      "adresse_arrivee": "Route d'Hermance 347, 1247 Anières",
      "conducteur_aller": "J.B",
      "conducteur_retour": "J.B",
      "conducteur_aller_name": "Jozeph",
      "conducteur_retour_name": "Jozeph",
      "conducteur_complet": "J.B",
      "ligne_originale": 16,
      "feuille_source": "Janvier",
      "geocoding_depart": {
        "address": "Chem. des Ramiers 9, 1245 Collonge-Bellerive, Switzerland",
        "lat": 46.2612114,
        "lng": 6.211791499999999,
        "status": "OK"
      },
      "geocoding_arrivee": {
        "address": "Rte d'Hermance 347, 1247 Anières, Switzerland",
        "lat": 46.2806955,
        "lng": 6.226785,
        "status": "OK"
      }
    },
    {
      "nom_prenom": "Monsieur GROSBETY Daniel",
      "date": "06.01.2025",
      "heure_depart_aller": "09:45",
      "heure_depart_retour": null,
      "type_course": "A/R",
      "adresse_depart": "Chemin des Courbes 9, 1247 Anières",
      "adresse_arrivee": "Chemin des Grangettes 7, 1224 Chêne-Bougeries",
      "conducteur_aller": "J.B",
      "conducteur_retour": "J.B",
      "conducteur_aller_name": "Jozeph",
      "conducteur_retour_name": "Jozeph",
      "conducteur_complet": "J.B",
      "ligne_originale": 17,
      "feuille_source": "Janvier",
      "geocoding_depart": {
        "address": "Chem. des Courbes 9, 1247 Anières, Switzerland",
        "lat": 46.2800252,
        "lng": 6.229706999999999,
        "status": "OK"
      },
      "geocoding_arrivee": {
        "address": "Chem. des Grangettes 7, 1224 Chêne-Bougeries, Switzerland",
        "lat": 46.199808,
        "lng": 6.1819462,
        "status": "OK"
      }
    },
    {
      "nom_prenom": "Madame KIRTHISINGHA Lalani Shérine",
      "date": "06.01.2025",
      "heure_depart_aller": "12:45",
      "heure_depart_retour": null,
      "type_course": "A/R",
      "adresse_depart": "Rue Carqueron 8, 1228 Les Avanchets",
      "adresse_arrivee": "Rue Alcid Jentzer 22, 1205 Genève",
      "conducteur_aller": "Y.L",
      "conducteur_retour": "Y.L",
      "conducteur_aller_name": "Y.L",
      "conducteur_retour_name": "Y.L",
      "conducteur_complet": "Y.L",
      "ligne_originale": 18,
      "feuille_source": "Janvier",
      "geocoding_depart": {
        "address": "Rue Carqueron 8, 1220 Vernier, Switzerland",
        "lat": 46.2196347,
        "lng": 6.1082708,
        "status": "OK"
      },
      "geocoding_arrivee": {
        "address": "Rue Alcide-Jentzer 22, 1205 Genève, Switzerland",
        "lat": 46.1910579,
        "lng": 6.1483434,
        "status": "OK"
      }
    },
    {
      "nom_prenom": "Monsieur ALEXANDRE Pierre",
      "date": "06.01.2025",
      "heure_depart_aller": "13:00",
      "heure_depart_retour": "16:30",
      "type_course": "A/R",
      "adresse_depart": "Chemin Gustave-Rochette 14, 1213 Onex",
      "adresse_arrivee": "Route de Chancy 126, 1213 Onex",
      "conducteur_aller": "D.D",
      "conducteur_retour": "D.D",
      "conducteur_aller_name": "Driss",
      "conducteur_retour_name": "Driss",
      "conducteur_complet": "D.D",
      "ligne_originale": 19,
      "feuille_source": "Janvier",
      "geocoding_depart": {
        "address": "EMS Fondation Butini, Chem. Gustave-Rochette 14, 1213 Onex, Switzerland",
        "lat": 46.1823697,
        "lng": 6.101874599999999,
        "status": "OK"
      },
      "geocoding_arrivee": {
        "address": "1213 Onex, Switzerland",
        "lat": 46.1945732,
        "lng": 6.1110751,
        "status": "OK"
      }
    },
    {
      "nom_prenom": "Monsieur FLAKS Marco",
      "date": "06.01.2025",
      "heure_depart_aller": "13:45",
      "heure_depart_retour": null,
      "type_course": "A/R",
      "adresse_depart": "Chemin des Courbes 9, 1247 Anières",
      "adresse_arrivee": "Chemin des Grangettes 7, 1224 Chêne-Bougeries",
      "conducteur_aller": "J.B",
      "conducteur_retour": "J.B",
      "conducteur_aller_name": "Jozeph",
      "conducteur_retour_name": "Jozeph",
      "conducteur_complet": "J.B",
      "ligne_originale": 20,
      "feuille_source": "Janvier",
      "geocoding_depart": {
        "address": "Chem. des Courbes 9, 1247 Anières, Switzerland",
        "lat": 46.2800252,
        "lng": 6.229706999999999,
        "status": "OK"
      },
      "geocoding_arrivee": {
        "address": "Chem. des Grangettes 7, 1224 Chêne-Bougeries, Switzerland",
        "lat": 46.199808,
        "lng": 6.1819462,
        "status": "OK"
      }
    },
    {
      "nom_prenom": "Madame ROHNER Catherine",
      "date": "06.01.2025",
      "heure_depart_aller": "14:00",
      "heure_depart_retour": null,
      "type_course": "A/R",
      "adresse_depart": "Rue Le-Corbusier 19, 1208 Genève",
      "adresse_arrivee": "Chemin Sous-Caran 44, 1245 Collonge-Bellerive",
      "conducteur_aller": "D.J",
      "conducteur_retour": "D.J",
      "conducteur_aller_name": "Drin",
      "conducteur_retour_name": "Drin",
      "conducteur_complet": "D.J",
      "ligne_originale": 21,
      "feuille_source": "Janvier",
      "geocoding_depart": {
        "address": "Rue Le-Corbusier 19, 1208 Genève, Switzerland",
        "lat": 46.1932268,
        "lng": 6.1674181,
        "status": "OK"
      },
      "geocoding_arrivee": {
        "address": "Chem. de Sous-Caran 44, 1245 Collonge-Bellerive, Switzerland",
        "lat": 46.2514113,
        "lng": 6.1964652,
        "status": "OK"
      }
    },
    {
      "nom_prenom": "Monsieur BYRNE Thomas",
      "date": "06.01.2025",
      "heure_depart_aller": "14:30",
      "heure_depart_retour": null,
      "type_course": "A/R",
      "adresse_depart": "Chemin des Courbes 9, 1247 Anières",
      "adresse_arrivee": "Rue Gabrielle-Perret-Gentil 4, 1205 Genève",
      "conducteur_aller": "D.D",
      "conducteur_retour": "D.D",
      "conducteur_aller_name": "Driss",
      "conducteur_retour_name": "Driss",
      "conducteur_complet": "D.D",
      "ligne_originale": 22,
      "feuille_source": "Janvier",
      "geocoding_depart": {
        "address": "Chem. des Courbes 9, 1247 Anières, Switzerland",
        "lat": 46.2800252,
        "lng": 6.229706999999999,
        "status": "OK"
      },
      "geocoding_arrivee": {
        "address": "Rue Gabrielle-Perret-Gentil 4, 1205 Genève, Switzerland",
        "lat": 46.1931277,
        "lng": 6.1491963,
        "status": "OK"
      }
    },
    {
      "nom_prenom": "Madame RABIAN Anna-Lucia",
      "date": "06.01.2025",
      "heure_depart_aller": "15:30",
      "heure_depart_retour": null,
      "type_course": "A/R",
      "adresse_depart": "Chemin des Courbes 9, 1247 Anières",
      "adresse_arrivee": "Rue Gabrielle-Perret-Gentil 4, 1205 Genève",
      "conducteur_aller": "J.B",
      "conducteur_retour": "J.B",
      "conducteur_aller_name": "Jozeph",
      "conducteur_retour_name": "Jozeph",
      "conducteur_complet": "J.B",
      "ligne_originale": 23,
      "feuille_source": "Janvier",
      "geocoding_depart": {
        "address": "Chem. des Courbes 9, 1247 Anières, Switzerland",
        "lat": 46.2800252,
        "lng": 6.229706999999999,
        "status": "OK"
      },
      "geocoding_arrivee": {
        "address": "Rue Gabrielle-Perret-Gentil 4, 1205 Genève, Switzerland",
        "lat": 46.1931277,
        "lng": 6.1491963,
        "status": "OK"
      }
    },
    {
      "nom_prenom": "Mlle NZENGA Riley",
      "date": "06.01.2025",
      "heure_depart_aller": "15:30",
      "heure_depart_retour": null,
      "type_course": "A",
      "adresse_depart": "Avenue de Roseraie 43, , 1205 Genève",
      "adresse_arrivee": "Rue Jacques-Grosslin 8,, 1227 Carouge",
      "conducteur_aller": "Y.L",
      "conducteur_retour": "Y.L",
      "conducteur_aller_name": "Y.L",
      "conducteur_retour_name": "Y.L",
      "conducteur_complet": "Y.L",
      "ligne_originale": 24,
      "feuille_source": "Janvier",
      "geocoding_depart": {
        "address": "Rue de la Roseraie 43, 1205 Genf, Switzerland",
        "lat": 46.1899017,
        "lng": 6.148613000000001,
        "status": "OK"
      },
      "geocoding_arrivee": {
        "address": "Rue Jacques-Grosselin 8, 1227 Carouge, Switzerland",
        "lat": 46.1881121,
        "lng": 6.1358842,
        "status": "OK"
      }
    },
    {
      "nom_prenom": "M. BENSEMMANE Noureddine",
      "date": "07.01.2025",
      "heure_depart_aller": "08:30",
      "heure_depart_retour": null,
      "type_course": "A/R",
      "adresse_depart": "Rue de Montbrillant 83, 1202 Genève",
      "adresse_arrivee": "Rue Gabrielle-Perret-Gentil 4, 1205 Genève",
      "conducteur_aller": "D.D",
      "conducteur_retour": "Y.L",
      "conducteur_aller_name": "Driss",
      "conducteur_retour_name": "Y.L",
      "conducteur_complet": "D.D/Y.L",
      "ligne_originale": 25,
      "feuille_source": "Janvier",
      "geocoding_depart": {
        "address": "Rue de Montbrillant 83, 1202 Genève, Switzerland",
        "lat": 46.2207348,
        "lng": 6.1401249,
        "status": "OK"
      },
      "geocoding_arrivee": {
        "address": "Rue Gabrielle-Perret-Gentil 4, 1205 Genève, Switzerland",
        "lat": 46.1931277,
        "lng": 6.1491963,
        "status": "OK"
      }
    },
    {
      "nom_prenom": "Monsieur ARLOT Gérard",
      "date": "07.01.2025",
      "heure_depart_aller": "08:30",
      "heure_depart_retour": null,
      "type_course": "A/R",
      "adresse_depart": "Chemin des Courbes 9, 1247 Anières",
      "adresse_arrivee": "Rue Gabrielle-Perret-Gentil 4, 1205 Genève",
      "conducteur_aller": "Y.L",
      "conducteur_retour": "Y.L",
      "conducteur_aller_name": "Y.L",
      "conducteur_retour_name": "Y.L",
      "conducteur_complet": "Y.L",
      "ligne_originale": 26,
      "feuille_source": "Janvier",
      "geocoding_depart": {
        "address": "Chem. des Courbes 9, 1247 Anières, Switzerland",
        "lat": 46.2800252,
        "lng": 6.229706999999999,
        "status": "OK"
      },
      "geocoding_arrivee": {
        "address": "Rue Gabrielle-Perret-Gentil 4, 1205 Genève, Switzerland",
        "lat": 46.1931277,
        "lng": 6.1491963,
        "status": "OK"
      }
    },
    {
      "nom_prenom": "Madame STAUFFER Gisèle",
      "date": "07.01.2025",
      "heure_depart_aller": "09:00",
      "heure_depart_retour": null,
      "type_course": "A",
      "adresse_depart": "Chemin des Princes 8C, 1222 Vesenaz",
      "adresse_arrivee": "Route d'Hermance 347, 1247 Anières",
      "conducteur_aller": "J.B",
      "conducteur_retour": "J.B",
      "conducteur_aller_name": "Jozeph",
      "conducteur_retour_name": "Jozeph",
      "conducteur_complet": "J.B",
      "ligne_originale": 27,
      "feuille_source": "Janvier",
      "geocoding_depart": {
        "address": "Chem. des Princes 8C, 1223 Vésenaz, Switzerland",
        "lat": 46.2347905,
        "lng": 6.1972324,
        "status": "OK"
      },
      "geocoding_arrivee": {
        "address": "Rte d'Hermance 347, 1247 Anières, Switzerland",
        "lat": 46.2806955,
        "lng": 6.226785,
        "status": "OK"
      }
    },
    {
      "nom_prenom": "Monsieur ITTAH Jacques",
      "date": "07.01.2025",
      "heure_depart_aller": "10:15",
      "heure_depart_retour": null,
      "type_course": "A/R",
      "adresse_depart": "Chemin des Courbes 9, 1247 Anières",
      "adresse_arrivee": "Rue De-Candolle 18, 1205 Genève",
      "conducteur_aller": "J.B",
      "conducteur_retour": "J.B",
      "conducteur_aller_name": "Jozeph",
      "conducteur_retour_name": "Jozeph",
      "conducteur_complet": "J.B",
      "ligne_originale": 28,
      "feuille_source": "Janvier",
      "geocoding_depart": {
        "address": "Chem. des Courbes 9, 1247 Anières, Switzerland",
        "lat": 46.2800252,
        "lng": 6.229706999999999,
        "status": "OK"
      },
      "geocoding_arrivee": {
        "address": "Rue De-Candolle 18, 1205 Genève, Switzerland",
        "lat": 46.1979265,
        "lng": 6.1449909,
        "status": "OK"
      }
    },
    {
      "nom_prenom": "Madame OUDE Gerthrude",
      "date": "07.01.2025",
      "heure_depart_aller": "10:15",
      "heure_depart_retour": null,
      "type_course": "A/R",
      "adresse_depart": "Rue du Couchant 15, 1248 Hermance",
      "adresse_arrivee": "Route de Thonons 61, 1222 Vesenaz",
      "conducteur_aller": "Y.L",
      "conducteur_retour": "Y.L",
      "conducteur_aller_name": "Y.L",
      "conducteur_retour_name": "Y.L",
      "conducteur_complet": "Y.L",
      "ligne_originale": 29,
      "feuille_source": "Janvier",
      "geocoding_depart": {
        "address": "Rue du Couchant 15, 1248 Hermance, Switzerland",
        "lat": 46.301346,
        "lng": 6.2455003,
        "status": "OK"
      },
      "geocoding_arrivee": {
        "address": "Vésenaz, 1222 Collonge-Bellerive, Switzerland",
        "lat": 46.23936,
        "lng": 6.19754,
        "status": "OK"
      }
    },
    {
      "nom_prenom": "Madame MENETREY Sylvie",
      "date": "07.01.2025",
      "heure_depart_aller": "10:15",
      "heure_depart_retour": null,
      "type_course": "A/R",
      "adresse_depart": "Avenue Bois-de-la-Chapelle 69, 1213 Onex",
      "adresse_arrivee": "Rue des Bains 35, 1205 Genène",
      "conducteur_aller": "D.D",
      "conducteur_retour": "D.D",
      "conducteur_aller_name": "Driss",
      "conducteur_retour_name": "Driss",
      "conducteur_complet": "D.D",
      "ligne_originale": 30,
      "feuille_source": "Janvier",
      "geocoding_depart": {
        "address": "Av. du, Av. Bois-de-la-Chapelle 69, 1213 Onex, Switzerland",
        "lat": 46.18868310000001,
        "lng": 6.102137099999999,
        "status": "OK"
      },
      "geocoding_arrivee": {
        "address": "Rue des Bains 35, 1205 Genève, Switzerland",
        "lat": 46.1988797,
        "lng": 6.1370416,
        "status": "OK"
      }
    },
    {
      "nom_prenom": "Monsieur RUEDIN Alexandre",
      "date": "07.01.2025",
      "heure_depart_aller": "13:30",
      "heure_depart_retour": null,
      "type_course": "A/R",
      "adresse_depart": "Chemin des Courbes 9, 1247 Anières",
      "adresse_arrivee": "Rue Gabrielle-Perret-Gentil 4, 1205 Genève",
      "conducteur_aller": "D.D",
      "conducteur_retour": "D.D",
      "conducteur_aller_name": "Driss",
      "conducteur_retour_name": "Driss",
      "conducteur_complet": "D.D",
      "ligne_originale": 31,
      "feuille_source": "Janvier",
      "geocoding_depart": {
        "address": "Chem. des Courbes 9, 1247 Anières, Switzerland",
        "lat": 46.2800252,
        "lng": 6.229706999999999,
        "status": "OK"
      },
      "geocoding_arrivee": {
        "address": "Rue Gabrielle-Perret-Gentil 4, 1205 Genève, Switzerland",
        "lat": 46.1931277,
        "lng": 6.1491963,
        "status": "OK"
      }
    },
    {
      "nom_prenom": "Madame STAUFFER Gisèle",
      "date": "07.01.2025",
      "heure_depart_aller": "14:00",
      "heure_depart_retour": null,
      "type_course": "A/R",
      "adresse_depart": "Route d'Hermance 347, 1247 Anières",
      "adresse_arrivee": "Rue François-Versonnex 8, 1207 Genève",
      "conducteur_aller": "J.B",
      "conducteur_retour": "J.B",
      "conducteur_aller_name": "Jozeph",
      "conducteur_retour_name": "Jozeph",
      "conducteur_complet": "J.B",
      "ligne_originale": 32,
      "feuille_source": "Janvier",
      "geocoding_depart": {
        "address": "Rte d'Hermance 347, 1247 Anières, Switzerland",
        "lat": 46.2806955,
        "lng": 6.226785,
        "status": "OK"
      },
      "geocoding_arrivee": {
        "address": "Rue François-Versonnex 8, 1207 Genève, Switzerland",
        "lat": 46.202728,
        "lng": 6.1557949,
        "status": "OK"
      }
    },
    {
      "nom_prenom": "Monsieur GROSBETY Daniel",
      "date": "08.01.2025",
      "heure_depart_aller": "08:00",
      "heure_depart_retour": null,
      "type_course": "A/R",
      "adresse_depart": "Chemin des Courbes 9, 1247 Anières",
      "adresse_arrivee": "Chemin des Grangettes 7, 1224 Chêne-Bougeries",
      "conducteur_aller": "Y.L",
      "conducteur_retour": "Y.L",
      "conducteur_aller_name": "Y.L",
      "conducteur_retour_name": "Y.L",
      "conducteur_complet": "Y.L",
      "ligne_originale": 33,
      "feuille_source": "Janvier",
      "geocoding_depart": {
        "address": "Chem. des Courbes 9, 1247 Anières, Switzerland",
        "lat": 46.2800252,
        "lng": 6.229706999999999,
        "status": "OK"
      },
      "geocoding_arrivee": {
        "address": "Chem. des Grangettes 7, 1224 Chêne-Bougeries, Switzerland",
        "lat": 46.199808,
        "lng": 6.1819462,
        "status": "OK"
      }
    },
    {
      "nom_prenom": "Madame REYTAN Catherine",
      "date": "08.01.2025",
      "heure_depart_aller": "09:15",
      "heure_depart_retour": "16:00",
      "type_course": "A/R",
      "adresse_depart": "Chemin des Ramiers 9, 1245 Collonge-Bellerive",
      "adresse_arrivee": "Route d'Hermance 347, 1247 Anières",
      "conducteur_aller": "J.B",
      "conducteur_retour": "J.B",
      "conducteur_aller_name": "Jozeph",
      "conducteur_retour_name": "Jozeph",
      "conducteur_complet": "J.B",
      "ligne_originale": 34,
      "feuille_source": "Janvier",
      "geocoding_depart": {
        "address": "Chem. des Ramiers 9, 1245 Collonge-Bellerive, Switzerland",
        "lat": 46.2612114,
        "lng": 6.211791499999999,
        "status": "OK"
      },
      "geocoding_arrivee": {
        "address": "Rte d'Hermance 347, 1247 Anières, Switzerland",
        "lat": 46.2806955,
        "lng": 6.226785,
        "status": "OK"
      }
    },
    {
      "nom_prenom": "Madame STASZKIEWICZ Danuta",
      "date": "08.01.2025",
      "heure_depart_aller": "09:45",
      "heure_depart_retour": "12:30",
      "type_course": "A/R",
      "adresse_depart": "Avenue des Livellules 4, 1219 Chatelaîne",
      "adresse_arrivee": "Rue Gabrielle-Perret-Gentil 4, 1205 Genève",
      "conducteur_aller": "D.D",
      "conducteur_retour": "D.D",
      "conducteur_aller_name": "Driss",
      "conducteur_retour_name": "Driss",
      "conducteur_complet": "D.D",
      "ligne_originale": 35,
      "feuille_source": "Janvier",
      "geocoding_depart": {
        "address": "Av. des Libellules 4, 1219 Vernier, Switzerland",
        "lat": 46.2077153,
        "lng": 6.108891,
        "status": "OK"
      },
      "geocoding_arrivee": {
        "address": "Rue Gabrielle-Perret-Gentil 4, 1205 Genève, Switzerland",
        "lat": 46.1931277,
        "lng": 6.1491963,
        "status": "OK"
      }
    },
    {
      "nom_prenom": "Madame BEILI",
      "date": "08.01.2025",
      "heure_depart_aller": "09:45",
      "heure_depart_retour": null,
      "type_course": "A/R",
      "adresse_depart": "Chemin Etienne-Chennaz 14, 1226 Thônex",
      "adresse_arrivee": "Rue Alcid Jentzer 22, 1205 Genève",
      "conducteur_aller": "Y.L",
      "conducteur_retour": "Y.L",
      "conducteur_aller_name": "Y.L",
      "conducteur_retour_name": "Y.L",
      "conducteur_complet": "Y.L",
      "ligne_originale": 36,
      "feuille_source": "Janvier",
      "geocoding_depart": {
        "address": "Chem. Etienne-Chennaz 14, 1226 Thônex, Switzerland",
        "lat": 46.1941135,
        "lng": 6.208208,
        "status": "OK"
      },
      "geocoding_arrivee": {
        "address": "Rue Alcide-Jentzer 22, 1205 Genève, Switzerland",
        "lat": 46.1910579,
        "lng": 6.1483434,
        "status": "OK"
      }
    },
    {
      "nom_prenom": "Madame FELDER Marie-Louise",
      "date": "08.01.2025",
      "heure_depart_aller": "10:00",
      "heure_depart_retour": null,
      "type_course": "A/R",
      "adresse_depart": "Rue Prévost-Martin 49, 1205 Genève",
      "adresse_arrivee": "Route de Frontenex 6, 1207 Genève",
      "conducteur_aller": "D.D",
      "conducteur_retour": "D.D",
      "conducteur_aller_name": "Driss",
      "conducteur_retour_name": "Driss",
      "conducteur_complet": "D.D",
      "ligne_originale": 37,
      "feuille_source": "Janvier",
      "geocoding_depart": {
        "address": "Rue Prévost-Martin 49, 1205 Genève, Switzerland",
        "lat": 46.1925559,
        "lng": 6.145065799999999,
        "status": "OK"
      },
      "geocoding_arrivee": {
        "address": "Rte de Frontenex 6, 1207 Genève, Switzerland",
        "lat": 46.2014996,
        "lng": 6.16146,
        "status": "OK"
      }
    },
    {
      "nom_prenom": "Madame RABIAN Anna-Lucia",
      "date": "08.01.2025",
      "heure_depart_aller": "10:15",
      "heure_depart_retour": null,
      "type_course": "A/R",
      "adresse_depart": "Chemin des Courbes 9, 1247 Anières",
      "adresse_arrivee": "Rue Gabrielle-Perret-Gentil 4, 1205 Genève",
      "conducteur_aller": "J.B",
      "conducteur_retour": "J.B",
      "conducteur_aller_name": "Jozeph",
      "conducteur_retour_name": "Jozeph",
      "conducteur_complet": "J.B",
      "ligne_originale": 38,
      "feuille_source": "Janvier",
      "geocoding_depart": {
        "address": "Chem. des Courbes 9, 1247 Anières, Switzerland",
        "lat": 46.2800252,
        "lng": 6.229706999999999,
        "status": "OK"
      },
      "geocoding_arrivee": {
        "address": "Rue Gabrielle-Perret-Gentil 4, 1205 Genève, Switzerland",
        "lat": 46.1931277,
        "lng": 6.1491963,
        "status": "OK"
      }
    },
    {
      "nom_prenom": "Madame PIUZ Marie-Thérèse",
      "date": "08.01.2025",
      "heure_depart_aller": "10:15",
      "heure_depart_retour": null,
      "type_course": "A/R",
      "adresse_depart": "Chemin des Courbes 9, 1247 Anières",
      "adresse_arrivee": "Chemin des Grangettes 7, 1224 Chêne-Bougeries",
      "conducteur_aller": "J.B",
      "conducteur_retour": "J.B",
      "conducteur_aller_name": "Jozeph",
      "conducteur_retour_name": "Jozeph",
      "conducteur_complet": "J.B",
      "ligne_originale": 39,
      "feuille_source": "Janvier",
      "geocoding_depart": {
        "address": "Chem. des Courbes 9, 1247 Anières, Switzerland",
        "lat": 46.2800252,
        "lng": 6.229706999999999,
        "status": "OK"
      },
      "geocoding_arrivee": {
        "address": "Chem. des Grangettes 7, 1224 Chêne-Bougeries, Switzerland",
        "lat": 46.199808,
        "lng": 6.1819462,
        "status": "OK"
      }
    },
    {
      "nom_prenom": "Madame SECRETAN Christiane",
      "date": "08.01.2025",
      "heure_depart_aller": "10:15",
      "heure_depart_retour": null,
      "type_course": "A/R",
      "adresse_depart": "Chemin Gustave-Rochette 14, 1213 Onex",
      "adresse_arrivee": "Chemin Beau-Soleil 12, 1206 Genève",
      "conducteur_aller": "K.A",
      "conducteur_retour": "K.A",
      "conducteur_aller_name": "Khalid",
      "conducteur_retour_name": "Khalid",
      "conducteur_complet": "K.A",
      "ligne_originale": 40,
      "feuille_source": "Janvier",
      "geocoding_depart": {
        "address": "EMS Fondation Butini, Chem. Gustave-Rochette 14, 1213 Onex, Switzerland",
        "lat": 46.1823697,
        "lng": 6.101874599999999,
        "status": "OK"
      },
      "geocoding_arrivee": {
        "address": "Chem. de Beau-Soleil 12, 1206 Genève, Switzerland",
        "lat": 46.1882359,
        "lng": 6.1611913,
        "status": "OK"
      }
    },
    {
      "nom_prenom": "Madame VEUILLET Odette",
      "date": "08.01.2025",
      "heure_depart_aller": "11:00",
      "heure_depart_retour": null,
      "type_course": "A/R",
      "adresse_depart": "Rue du Couchant 15, 1248 Hermance",
      "adresse_arrivee": "Rue Gabrielle-Perret-Gentil 4, 1205 Genève",
      "conducteur_aller": "Y.L",
      "conducteur_retour": "Y.L",
      "conducteur_aller_name": "Y.L",
      "conducteur_retour_name": "Y.L",
      "conducteur_complet": "Y.L",
      "ligne_originale": 41,
      "feuille_source": "Janvier",
      "geocoding_depart": {
        "address": "Rue du Couchant 15, 1248 Hermance, Switzerland",
        "lat": 46.301346,
        "lng": 6.2455003,
        "status": "OK"
      },
      "geocoding_arrivee": {
        "address": "Rue Gabrielle-Perret-Gentil 4, 1205 Genève, Switzerland",
        "lat": 46.1931277,
        "lng": 6.1491963,
        "status": "OK"
      }
    },
    {
      "nom_prenom": "Monsieur ALEXANDRE Pierre",
      "date": "08.01.2025",
      "heure_depart_aller": "13:00",
      "heure_depart_retour": "16:30",
      "type_course": "A/R",
      "adresse_depart": "Chemin Gustave-Rochette 14, 1213 Onex",
      "adresse_arrivee": "Route de Chancy 126, 1213 Onex",
      "conducteur_aller": "J.B",
      "conducteur_retour": "D.D",
      "conducteur_aller_name": "Jozeph",
      "conducteur_retour_name": "Driss",
      "conducteur_complet": "J.B/D.D",
      "ligne_originale": 42,
      "feuille_source": "Janvier",
      "geocoding_depart": {
        "address": "EMS Fondation Butini, Chem. Gustave-Rochette 14, 1213 Onex, Switzerland",
        "lat": 46.1823697,
        "lng": 6.101874599999999,
        "status": "OK"
      },
      "geocoding_arrivee": {
        "address": "1213 Onex, Switzerland",
        "lat": 46.1945732,
        "lng": 6.1110751,
        "status": "OK"
      }
    },
    {
      "nom_prenom": "Madame GUILLAIN Sylvie",
      "date": "08.01.2025",
      "heure_depart_aller": "14:15",
      "heure_depart_retour": null,
      "type_course": "A",
      "adresse_depart": "Chemin des Courbes 9, 1247 Anières",
      "adresse_arrivee": "Rue Gabrielle-Perret-Gentil 4, 1205 Genève",
      "conducteur_aller": "D.D",
      "conducteur_retour": "D.D",
      "conducteur_aller_name": "Driss",
      "conducteur_retour_name": "Driss",
      "conducteur_complet": "D.D",
      "ligne_originale": 43,
      "feuille_source": "Janvier",
      "geocoding_depart": {
        "address": "Chem. des Courbes 9, 1247 Anières, Switzerland",
        "lat": 46.2800252,
        "lng": 6.229706999999999,
        "status": "OK"
      },
      "geocoding_arrivee": {
        "address": "Rue Gabrielle-Perret-Gentil 4, 1205 Genève, Switzerland",
        "lat": 46.1931277,
        "lng": 6.1491963,
        "status": "OK"
      }
    },
    {
      "nom_prenom": "Madame BELAIS",
      "date": "08.01.2025",
      "heure_depart_aller": "14:40",
      "heure_depart_retour": "16:00",
      "type_course": "A/R",
      "adresse_depart": "Route de chêne 1041224 Chêne-Bougeries",
      "adresse_arrivee": "Route de Vessy 41, 1234 Vessy",
      "conducteur_aller": "K.A",
      "conducteur_retour": "K.A",
      "conducteur_aller_name": "Khalid",
      "conducteur_retour_name": "Khalid",
      "conducteur_complet": "K.A",
      "ligne_originale": 44,
      "feuille_source": "Janvier",
      "geocoding_depart": {
        "address": "Rte de Chêne, Chêne-Bougeries, Switzerland",
        "lat": 46.198713,
        "lng": 6.1813959,
        "status": "OK"
      },
      "geocoding_arrivee": {
        "address": "Rte de Vessy 41, 1234 Vessy, Switzerland",
        "lat": 46.18048539999999,
        "lng": 6.1703172,
        "status": "OK"
      }
    },
    {
      "nom_prenom": "Madame STAUFFER Gisèle",
      "date": "08.01.2025",
      "heure_depart_aller": "15:45",
      "heure_depart_retour": null,
      "type_course": "A/R",
      "adresse_depart": "Chemin des Princes 8C, 1222 Vesenaz",
      "adresse_arrivee": "Avenue de la Gare des Eaux-Vives 28, 1208 Genève",
      "conducteur_aller": "Y.L",
      "conducteur_retour": "Y.L",
      "conducteur_aller_name": "Y.L",
      "conducteur_retour_name": "Y.L",
      "conducteur_complet": "Y.L",
      "ligne_originale": 45,
      "feuille_source": "Janvier",
      "geocoding_depart": {
        "address": "Chem. des Princes 8C, 1223 Vésenaz, Switzerland",
        "lat": 46.2347905,
        "lng": 6.1972324,
        "status": "OK"
      },
      "geocoding_arrivee": {
        "address": "Av. de la Gare des Eaux-Vives 28, 1208 Genève, Switzerland",
        "lat": 46.202391,
        "lng": 6.1696122,
        "status": "OK"
      }
    },
    {
      "nom_prenom": "Madame JAN Josiane",
      "date": "08.01.2025",
      "heure_depart_aller": "15:45",
      "heure_depart_retour": null,
      "type_course": "A/R",
      "adresse_depart": "Chemin Gustave-Rochette 14, 1213 Onex",
      "adresse_arrivee": "e Dr CIONCARoute de Chancy 281213 Petit-Lancy",
      "conducteur_aller": "D.D",
      "conducteur_retour": "D.D",
      "conducteur_aller_name": "Driss",
      "conducteur_retour_name": "Driss",
      "conducteur_complet": "D.D",
      "ligne_originale": 46,
      "feuille_source": "Janvier",
      "geocoding_depart": {
        "address": "EMS Fondation Butini, Chem. Gustave-Rochette 14, 1213 Onex, Switzerland",
        "lat": 46.1823697,
        "lng": 6.101874599999999,
        "status": "OK"
      },
      "geocoding_arrivee": {
        "address": "Petit-Lancy, 1213 Lancy, Switzerland",
        "lat": 46.1923106,
        "lng": 6.115584699999999,
        "status": "OK"
      }
    },
    {
      "nom_prenom": "Madame REYTAN Catherine",
      "date": "09.01.2025",
      "heure_depart_aller": "09:15",
      "heure_depart_retour": "16:00",
      "type_course": "A/R",
      "adresse_depart": "Chemin des Ramiers 9, 1245 Collonge-Bellerive",
      "adresse_arrivee": "Route d'Hermance 347, 1247 Anières",
      "conducteur_aller": "Y.L",
      "conducteur_retour": "Y.L",
      "conducteur_aller_name": "Y.L",
      "conducteur_retour_name": "Y.L",
      "conducteur_complet": "Y.L",
      "ligne_originale": 47,
      "feuille_source": "Janvier",
      "geocoding_depart": {
        "address": "Chem. des Ramiers 9, 1245 Collonge-Bellerive, Switzerland",
        "lat": 46.2612114,
        "lng": 6.211791499999999,
        "status": "OK"
      },
      "geocoding_arrivee": {
        "address": "Rte d'Hermance 347, 1247 Anières, Switzerland",
        "lat": 46.2806955,
        "lng": 6.226785,
        "status": "OK"
      }
    },
    {
      "nom_prenom": "Madame STAUFFER Gisèle",
      "date": "09.01.2025",
      "heure_depart_aller": "10:15",
      "heure_depart_retour": "12:00",
      "type_course": "A/R",
      "adresse_depart": "Chemin des Princes 8C, 1222 Vesenaz",
      "adresse_arrivee": "Rue de la Terrassière 44, 1207 Genève",
      "conducteur_aller": "Y.L",
      "conducteur_retour": "Y.L",
      "conducteur_aller_name": "Y.L",
      "conducteur_retour_name": "Y.L",
      "conducteur_complet": "Y.L",
      "ligne_originale": 48,
      "feuille_source": "Janvier",
      "geocoding_depart": {
        "address": "Chem. des Princes 8C, 1223 Vésenaz, Switzerland",
        "lat": 46.2347905,
        "lng": 6.1972324,
        "status": "OK"
      },
      "geocoding_arrivee": {
        "address": "Rue de la Terrassière 44, 1207 Genève, Switzerland",
        "lat": 46.2001166,
        "lng": 6.1595717,
        "status": "OK"
      }
    },
    {
      "nom_prenom": "Madame STASZKIEWICZ Danuta",
      "date": "09.01.2025",
      "heure_depart_aller": "12:15",
      "heure_depart_retour": "17:30",
      "type_course": "A/R",
      "adresse_depart": "Avenue des Livellules 4,1219 Chatelaîne",
      "adresse_arrivee": "Rue Gabrielle-Perret-Gentil 4, 1205 Genève",
      "conducteur_aller": "J.B",
      "conducteur_retour": "J.B",
      "conducteur_aller_name": "Jozeph",
      "conducteur_retour_name": "Jozeph",
      "conducteur_complet": "J.B",
      "ligne_originale": 49,
      "feuille_source": "Janvier",
      "geocoding_depart": {
        "address": "Av. des Libellules 4, 1219 Vernier, Switzerland",
        "lat": 46.2077153,
        "lng": 6.108891,
        "status": "OK"
      },
      "geocoding_arrivee": {
        "address": "Rue Gabrielle-Perret-Gentil 4, 1205 Genève, Switzerland",
        "lat": 46.1931277,
        "lng": 6.1491963,
        "status": "OK"
      }
    },
    {
      "nom_prenom": "Madame MENETREY Sylvie",
      "date": "09.01.2025",
      "heure_depart_aller": "13:15",
      "heure_depart_retour": null,
      "type_course": "A/R",
      "adresse_depart": "Avenue Bois-de-la-Chapelle 69, 1213 Onex",
      "adresse_arrivee": "Route du Grand-Lancy 6, 1227 Lancy",
      "conducteur_aller": "J.B",
      "conducteur_retour": "J.B",
      "conducteur_aller_name": "Jozeph",
      "conducteur_retour_name": "Jozeph",
      "conducteur_complet": "J.B",
      "ligne_originale": 50,
      "feuille_source": "Janvier",
      "geocoding_depart": {
        "address": "Av. du, Av. Bois-de-la-Chapelle 69, 1213 Onex, Switzerland",
        "lat": 46.18868310000001,
        "lng": 6.102137099999999,
        "status": "OK"
      },
      "geocoding_arrivee": {
        "address": "Rte du Grand-Lancy 6, 1211 Genève, Switzerland",
        "lat": 46.1881318,
        "lng": 6.126994400000001,
        "status": "OK"
      }
    },
    {
      "nom_prenom": "Madame WALTER Charlotte",
      "date": "09.01.2025",
      "heure_depart_aller": "14:00",
      "heure_depart_retour": null,
      "type_course": "A/R",
      "adresse_depart": "Rue de Vermont 6bis, 1202 Genève",
      "adresse_arrivee": "Rue de la Servette 75, 1202 Genève",
      "conducteur_aller": "Y.L",
      "conducteur_retour": "Y.L",
      "conducteur_aller_name": "Y.L",
      "conducteur_retour_name": "Y.L",
      "conducteur_complet": "Y.L",
      "ligne_originale": 51,
      "feuille_source": "Janvier",
      "geocoding_depart": {
        "address": "Rue de Vermont, 1202 Genève, Switzerland",
        "lat": 46.2179067,
        "lng": 6.1366657,
        "status": "OK"
      },
      "geocoding_arrivee": {
        "address": "Rue de la Servette 75, 1202 Genève, Switzerland",
        "lat": 46.2123135,
        "lng": 6.132206,
        "status": "OK"
      }
    },
    {
      "nom_prenom": "Madame STAUFFER Gisèle",
      "date": "09.01.2025",
      "heure_depart_aller": "14:15",
      "heure_depart_retour": null,
      "type_course": "A/R",
      "adresse_depart": "Chemin des Princes 8C, 1222 Vesenaz",
      "adresse_arrivee": "Rue Le-Corbusier 18, 1208 Genève",
      "conducteur_aller": "J.B",
      "conducteur_retour": "J.B",
      "conducteur_aller_name": "Jozeph",
      "conducteur_retour_name": "Jozeph",
      "conducteur_complet": "J.B",
      "ligne_originale": 52,
      "feuille_source": "Janvier",
      "geocoding_depart": {
        "address": "Chem. des Princes 8C, 1223 Vésenaz, Switzerland",
        "lat": 46.2347905,
        "lng": 6.1972324,
        "status": "OK"
      },
      "geocoding_arrivee": {
        "address": "Rue Le-Corbusier 18, 1208 Genève, Switzerland",
        "lat": 46.1936115,
        "lng": 6.1670076,
        "status": "OK"
      }
    },
    {
      "nom_prenom": "Madame MERCURI Domenica",
      "date": "09.01.2025",
      "heure_depart_aller": "15:30",
      "heure_depart_retour": null,
      "type_course": "A/R",
      "adresse_depart": "Rue du Village-Suisse 19, 1205 Genève",
      "adresse_arrivee": "Rue Emile-Yung 1, 1205 Genève",
      "conducteur_aller": "J.B",
      "conducteur_retour": "J.B",
      "conducteur_aller_name": "Jozeph",
      "conducteur_retour_name": "Jozeph",
      "conducteur_complet": "J.B",
      "ligne_originale": 53,
      "feuille_source": "Janvier",
      "geocoding_depart": {
        "address": "Rue du Village-Suisse 19, 1205 Genève, Switzerland",
        "lat": 46.1985388,
        "lng": 6.134295799999999,
        "status": "OK"
      },
      "geocoding_arrivee": {
        "address": "Rue Emile-Yung 1, 1205 Genève, Switzerland",
        "lat": 46.1957292,
        "lng": 6.1503254,
        "status": "OK"
      }
    },
    {
      "nom_prenom": "Madame ROCHAT Hilda",
      "date": "09.01.2025",
      "heure_depart_aller": "16:00",
      "heure_depart_retour": null,
      "type_course": "R",
      "adresse_depart": "Route d'Hermance 347, 1247 Anières",
      "adresse_arrivee": "Chemin du Nant-d'Aisy 45, 1247 Anières",
      "conducteur_aller": "Y.L",
      "conducteur_retour": "Y.L",
      "conducteur_aller_name": "Y.L",
      "conducteur_retour_name": "Y.L",
      "conducteur_complet": "Y.L",
      "ligne_originale": 54,
      "feuille_source": "Janvier",
      "geocoding_depart": {
        "address": "Rte d'Hermance 347, 1247 Anières, Switzerland",
        "lat": 46.2806955,
        "lng": 6.226785,
        "status": "OK"
      },
      "geocoding_arrivee": {
        "address": "Chem. du Nant-d'Aisy 45, 1247 Anières, Switzerland",
        "lat": 46.27337910000001,
        "lng": 6.219508599999999,
        "status": "OK"
      }
    },
    {
      "nom_prenom": "Madame MEREU MariaPia",
      "date": "10.01.2025",
      "heure_depart_aller": "09:00",
      "heure_depart_retour": null,
      "type_course": "A/R",
      "adresse_depart": "Chemin du Nant-d'Argent 3, 1223 Cologny",
      "adresse_arrivee": "Chemin des Grangettes 7, 1224 Chêne-Bougeries",
      "conducteur_aller": "D.D",
      "conducteur_retour": "D.D",
      "conducteur_aller_name": "Driss",
      "conducteur_retour_name": "Driss",
      "conducteur_complet": "D.D",
      "ligne_originale": 55,
      "feuille_source": "Janvier",
      "geocoding_depart": {
        "address": "Chem. du Nant-d'Argent 3, 1223 Cologny, Switzerland",
        "lat": 46.2296915,
        "lng": 6.1880162,
        "status": "OK"
      },
      "geocoding_arrivee": {
        "address": "Chem. des Grangettes 7, 1224 Chêne-Bougeries, Switzerland",
        "lat": 46.199808,
        "lng": 6.1819462,
        "status": "OK"
      }
    },
    {
      "nom_prenom": "Madame REYTAN Catherine",
      "date": "10.01.2025",
      "heure_depart_aller": "09:15",
      "heure_depart_retour": "16:00",
      "type_course": "A/R",
      "adresse_depart": "Chemin des Ramiers 9, 1245 Collonge-Bellerive",
      "adresse_arrivee": "Route d'Hermance 347, 1247 Anières",
      "conducteur_aller": "J.B",
      "conducteur_retour": "J.B",
      "conducteur_aller_name": "Jozeph",
      "conducteur_retour_name": "Jozeph",
      "conducteur_complet": "J.B",
      "ligne_originale": 56,
      "feuille_source": "Janvier",
      "geocoding_depart": {
        "address": "Chem. des Ramiers 9, 1245 Collonge-Bellerive, Switzerland",
        "lat": 46.2612114,
        "lng": 6.211791499999999,
        "status": "OK"
      },
      "geocoding_arrivee": {
        "address": "Rte d'Hermance 347, 1247 Anières, Switzerland",
        "lat": 46.2806955,
        "lng": 6.226785,
        "status": "OK"
      }
    },
    {
      "nom_prenom": "Madame MENETREY Sylvie",
      "date": "10.01.2025",
      "heure_depart_aller": "12:45",
      "heure_depart_retour": null,
      "type_course": "A/R",
      "adresse_depart": "Avenue Bois-de-la-Chapelle 69, 1213 Onex",
      "adresse_arrivee": "Rue des Bains 35, 1205 Genène",
      "conducteur_aller": "D.D",
      "conducteur_retour": "D.D",
      "conducteur_aller_name": "Driss",
      "conducteur_retour_name": "Driss",
      "conducteur_complet": "D.D",
      "ligne_originale": 57,
      "feuille_source": "Janvier",
      "geocoding_depart": {
        "address": "Av. du, Av. Bois-de-la-Chapelle 69, 1213 Onex, Switzerland",
        "lat": 46.18868310000001,
        "lng": 6.102137099999999,
        "status": "OK"
      },
      "geocoding_arrivee": {
        "address": "Rue des Bains 35, 1205 Genève, Switzerland",
        "lat": 46.1988797,
        "lng": 6.1370416,
        "status": "OK"
      }
    },
    {
      "nom_prenom": "Monsieur ALEXANDRE Pierre",
      "date": "10.01.2025",
      "heure_depart_aller": "13:00",
      "heure_depart_retour": "16:30",
      "type_course": "A/R",
      "adresse_depart": "Chemin Gustave-Rochette 14, 1213 Onex",
      "adresse_arrivee": "Route de Chancy 126, 1213 Onex",
      "conducteur_aller": "J.B",
      "conducteur_retour": "J.B",
      "conducteur_aller_name": "Jozeph",
      "conducteur_retour_name": "Jozeph",
      "conducteur_complet": "J.B",
      "ligne_originale": 58,
      "feuille_source": "Janvier",
      "geocoding_depart": {
        "address": "EMS Fondation Butini, Chem. Gustave-Rochette 14, 1213 Onex, Switzerland",
        "lat": 46.1823697,
        "lng": 6.101874599999999,
        "status": "OK"
      },
      "geocoding_arrivee": {
        "address": "1213 Onex, Switzerland",
        "lat": 46.1945732,
        "lng": 6.1110751,
        "status": "OK"
      }
    },
    {
      "nom_prenom": "Madame KAHMI SHELLA",
      "date": "11.01.2025",
      "heure_depart_aller": "10:00",
      "heure_depart_retour": "12:00",
      "type_course": "A/R",
      "adresse_depart": "Route de Florissant 86A, 1206 Genève",
      "adresse_arrivee": "Place de la Sinagogue 11, 1204 Genève",
      "conducteur_aller": "D.D",
      "conducteur_retour": "D.D",
      "conducteur_aller_name": "Driss",
      "conducteur_retour_name": "Driss",
      "conducteur_complet": "D.D",
      "ligne_originale": 59,
      "feuille_source": "Janvier",
      "geocoding_depart": {
        "address": "Rte de Florissant 86A, 1206 Genève, Switzerland",
        "lat": 46.19182,
        "lng": 6.164186399999999,
        "status": "OK"
      },
      "geocoding_arrivee": {
        "address": "Pl. de la Synagogue 11, 1204 Genève, Switzerland",
        "lat": 46.2028297,
        "lng": 6.141019699999999,
        "status": "OK"
      }
    },
    {
      "nom_prenom": "Madame KAHMI SHELLA",
      "date": "11.01.2025",
      "heure_depart_aller": "19:30",
      "heure_depart_retour": null,
      "type_course": "A/R",
      "adresse_depart": "Route de Florissant 86A, 1206 Genève",
      "adresse_arrivee": "Chemin du Petit-Saconnex 9, 1209 Genève",
      "conducteur_aller": "D.D",
      "conducteur_retour": "D.D",
      "conducteur_aller_name": "Driss",
      "conducteur_retour_name": "Driss",
      "conducteur_complet": "D.D",
      "ligne_originale": 60,
      "feuille_source": "Janvier",
      "geocoding_depart": {
        "address": "Rte de Florissant 86A, 1206 Genève, Switzerland",
        "lat": 46.19182,
        "lng": 6.164186399999999,
        "status": "OK"
      },
      "geocoding_arrivee": {
        "address": "Chem. du Petit-Saconnex 9, 1209 Genève, Switzerland",
        "lat": 46.2241197,
        "lng": 6.1324575,
        "status": "OK"
      }
    },
    {
      "nom_prenom": "Madamer ILEA Olimpia",
      "date": "13.01.2025",
      "heure_depart_aller": "08:00",
      "heure_depart_retour": "10:45",
      "type_course": "A/R",
      "adresse_depart": "Chemin du petit-Bel-Air 4, 1226 Thônex",
      "adresse_arrivee": "Rue Gabrielle-Perret-Gentil 4, 1205 Genève",
      "conducteur_aller": "D.D",
      "conducteur_retour": "D.D",
      "conducteur_aller_name": "Driss",
      "conducteur_retour_name": "Driss",
      "conducteur_complet": "D.D",
      "ligne_originale": 61,
      "feuille_source": "Janvier",
      "geocoding_depart": {
        "address": "Chem. du Petit-Bel-Air 4, 1225 Chêne-Bourg, Switzerland",
        "lat": 46.209307,
        "lng": 6.210075,
        "status": "OK"
      },
      "geocoding_arrivee": {
        "address": "Rue Gabrielle-Perret-Gentil 4, 1205 Genève, Switzerland",
        "lat": 46.1931277,
        "lng": 6.1491963,
        "status": "OK"
      }
    },
    {
      "nom_prenom": "Madame TATELISHIVILI Manana",
      "date": "13.01.2025",
      "heure_depart_aller": "08:00",
      "heure_depart_retour": null,
      "type_course": "A/R",
      "adresse_depart": "Chemin du petit-Bel-Air 4, 1226 Thônex",
      "adresse_arrivee": "Rue Gabrielle-Perret-Gentil 4, 1205 Genève",
      "conducteur_aller": "D.D",
      "conducteur_retour": "D.D",
      "conducteur_aller_name": "Driss",
      "conducteur_retour_name": "Driss",
      "conducteur_complet": "D.D",
      "ligne_originale": 62,
      "feuille_source": "Janvier",
      "geocoding_depart": {
        "address": "Chem. du Petit-Bel-Air 4, 1225 Chêne-Bourg, Switzerland",
        "lat": 46.209307,
        "lng": 6.210075,
        "status": "OK"
      },
      "geocoding_arrivee": {
        "address": "Rue Gabrielle-Perret-Gentil 4, 1205 Genève, Switzerland",
        "lat": 46.1931277,
        "lng": 6.1491963,
        "status": "OK"
      }
    },
    {
      "nom_prenom": "Madame REYTAN Catherine",
      "date": "13.01.2025",
      "heure_depart_aller": "09:15",
      "heure_depart_retour": "16:00",
      "type_course": "A/R",
      "adresse_depart": "Chemin des Ramiers 9, 1245 Collonge-Bellerive",
      "adresse_arrivee": "Route d'Hermance 347, 1247 Anières",
      "conducteur_aller": "Y.L",
      "conducteur_retour": "D.D",
      "conducteur_aller_name": "Y.L",
      "conducteur_retour_name": "Driss",
      "conducteur_complet": "Y.L/D.D",
      "ligne_originale": 63,
      "feuille_source": "Janvier",
      "geocoding_depart": {
        "address": "Chem. des Ramiers 9, 1245 Collonge-Bellerive, Switzerland",
        "lat": 46.2612114,
        "lng": 6.211791499999999,
        "status": "OK"
      },
      "geocoding_arrivee": {
        "address": "Rte d'Hermance 347, 1247 Anières, Switzerland",
        "lat": 46.2806955,
        "lng": 6.226785,
        "status": "OK"
      }
    },
    {
      "nom_prenom": "Madame MENETREY Sylvie",
      "date": "13.01.2025",
      "heure_depart_aller": "10:00",
      "heure_depart_retour": null,
      "type_course": "A/R",
      "adresse_depart": "Avenue Bois-de-la-Chapelle 69, 1213 Onex",
      "adresse_arrivee": "Rue Jacques-Dalphin 15, 1227Carouge",
      "conducteur_aller": "J.B",
      "conducteur_retour": "J.B",
      "conducteur_aller_name": "Jozeph",
      "conducteur_retour_name": "Jozeph",
      "conducteur_complet": "J.B",
      "ligne_originale": 64,
      "feuille_source": "Janvier",
      "geocoding_depart": {
        "address": "Av. du, Av. Bois-de-la-Chapelle 69, 1213 Onex, Switzerland",
        "lat": 46.18868310000001,
        "lng": 6.102137099999999,
        "status": "OK"
      },
      "geocoding_arrivee": {
        "address": "Rue Jacques-Dalphin 15, 1227 Carouge, Switzerland",
        "lat": 46.1847645,
        "lng": 6.139338899999999,
        "status": "OK"
      }
    },
    {
      "nom_prenom": "Monsieur ALEXANDRE Pierre",
      "date": "13.01.2025",
      "heure_depart_aller": "13:00",
      "heure_depart_retour": "16:30",
      "type_course": "A/R",
      "adresse_depart": "Chemin Gustave-Rochette 14, 1213 Onex",
      "adresse_arrivee": "Route de Chancy 126, 1213 Onex",
      "conducteur_aller": "J.B",
      "conducteur_retour": "J.B",
      "conducteur_aller_name": "Jozeph",
      "conducteur_retour_name": "Jozeph",
      "conducteur_complet": "J.B",
      "ligne_originale": 65,
      "feuille_source": "Janvier",
      "geocoding_depart": {
        "address": "EMS Fondation Butini, Chem. Gustave-Rochette 14, 1213 Onex, Switzerland",
        "lat": 46.1823697,
        "lng": 6.101874599999999,
        "status": "OK"
      },
      "geocoding_arrivee": {
        "address": "1213 Onex, Switzerland",
        "lat": 46.1945732,
        "lng": 6.1110751,
        "status": "OK"
      }
    },
    {
      "nom_prenom": "Monsieur VITE André",
      "date": "13.01.2025",
      "heure_depart_aller": "13:15",
      "heure_depart_retour": null,
      "type_course": "A/R",
      "adresse_depart": "Chemin Gustave-Rochette 14, 1213 Onex",
      "adresse_arrivee": "Rue Gabrielle-Perret-Gentil 4, 1205 Genève",
      "conducteur_aller": "J.B",
      "conducteur_retour": "J.B",
      "conducteur_aller_name": "Jozeph",
      "conducteur_retour_name": "Jozeph",
      "conducteur_complet": "J.B",
      "ligne_originale": 66,
      "feuille_source": "Janvier",
      "geocoding_depart": {
        "address": "EMS Fondation Butini, Chem. Gustave-Rochette 14, 1213 Onex, Switzerland",
        "lat": 46.1823697,
        "lng": 6.101874599999999,
        "status": "OK"
      },
      "geocoding_arrivee": {
        "address": "Rue Gabrielle-Perret-Gentil 4, 1205 Genève, Switzerland",
        "lat": 46.1931277,
        "lng": 6.1491963,
        "status": "OK"
      }
    },
    {
      "nom_prenom": "Madame STAUFFER Gisèle",
      "date": "13.01.2025",
      "heure_depart_aller": "13:30",
      "heure_depart_retour": null,
      "type_course": "A/R",
      "adresse_depart": "Chemin des Princes 8C, 1222 Vesenaz",
      "adresse_arrivee": "Avenue de la Gare des Eaux-Vives 28, 1208 Genève",
      "conducteur_aller": "Y.L",
      "conducteur_retour": "Y.L",
      "conducteur_aller_name": "Y.L",
      "conducteur_retour_name": "Y.L",
      "conducteur_complet": "Y.L",
      "ligne_originale": 67,
      "feuille_source": "Janvier",
      "geocoding_depart": {
        "address": "Chem. des Princes 8C, 1223 Vésenaz, Switzerland",
        "lat": 46.2347905,
        "lng": 6.1972324,
        "status": "OK"
      },
      "geocoding_arrivee": {
        "address": "Av. de la Gare des Eaux-Vives 28, 1208 Genève, Switzerland",
        "lat": 46.202391,
        "lng": 6.1696122,
        "status": "OK"
      }
    },
    {
      "nom_prenom": "Monsieur JACOT-DESCOMBES John",
      "date": "13.01.2025",
      "heure_depart_aller": "15:15",
      "heure_depart_retour": null,
      "type_course": "A/R",
      "adresse_depart": "Chemin des Courbes 9, 1247 Anières",
      "adresse_arrivee": "Rue Gabrielle-Perret-Gentil 4, 1205 Genève",
      "conducteur_aller": "Y.L",
      "conducteur_retour": "Y.L",
      "conducteur_aller_name": "Y.L",
      "conducteur_retour_name": "Y.L",
      "conducteur_complet": "Y.L",
      "ligne_originale": 68,
      "feuille_source": "Janvier",
      "geocoding_depart": {
        "address": "Chem. des Courbes 9, 1247 Anières, Switzerland",
        "lat": 46.2800252,
        "lng": 6.229706999999999,
        "status": "OK"
      },
      "geocoding_arrivee": {
        "address": "Rue Gabrielle-Perret-Gentil 4, 1205 Genève, Switzerland",
        "lat": 46.1931277,
        "lng": 6.1491963,
        "status": "OK"
      }
    },
    {
      "nom_prenom": "Mlle NZENGA Riley",
      "date": "13.01.2025",
      "heure_depart_aller": "15:30",
      "heure_depart_retour": null,
      "type_course": "A",
      "adresse_depart": "Avenue de Roseraie 43, 1205 Genève",
      "adresse_arrivee": "Rue Jacques-Grosslin 8, 1227 Carouge",
      "conducteur_aller": "K.A",
      "conducteur_retour": "K.A",
      "conducteur_aller_name": "Khalid",
      "conducteur_retour_name": "Khalid",
      "conducteur_complet": "K.A",
      "ligne_originale": 69,
      "feuille_source": "Janvier",
      "geocoding_depart": {
        "address": "Rue de la Roseraie 43, 1205 Genf, Switzerland",
        "lat": 46.1899017,
        "lng": 6.148613000000001,
        "status": "OK"
      },
      "geocoding_arrivee": {
        "address": "Rue Jacques-Grosselin 8, 1227 Carouge, Switzerland",
        "lat": 46.1881121,
        "lng": 6.1358842,
        "status": "OK"
      }
    },
    {
      "nom_prenom": "Monsieur MORDASINI Gérard",
      "date": "13.01.2025",
      "heure_depart_aller": "15:45",
      "heure_depart_retour": null,
      "type_course": "A/R",
      "adresse_depart": "Rue du Couchant 15, 1248 Hermance",
      "adresse_arrivee": "Quai du Cheval-Blanc 11, 1227 Acacias",
      "conducteur_aller": "J.B",
      "conducteur_retour": "J.B",
      "conducteur_aller_name": "Jozeph",
      "conducteur_retour_name": "Jozeph",
      "conducteur_complet": "J.B",
      "ligne_originale": 70,
      "feuille_source": "Janvier",
      "geocoding_depart": {
        "address": "Rue du Couchant 15, 1248 Hermance, Switzerland",
        "lat": 46.301346,
        "lng": 6.2455003,
        "status": "OK"
      },
      "geocoding_arrivee": {
        "address": "Quai du Cheval-Blanc 11, 1227 Genève, Switzerland",
        "lat": 46.1902937,
        "lng": 6.1399477,
        "status": "OK"
      }
    },
    {
      "nom_prenom": "Madame ROCHAT Hilda",
      "date": "13.01.2025",
      "heure_depart_aller": "16:00",
      "heure_depart_retour": null,
      "type_course": "R",
      "adresse_depart": "Route d'Hermance 347, 1247 Anières",
      "adresse_arrivee": "Chemin du Nant-d'Aisy 45, 1247 Anières",
      "conducteur_aller": "D.D",
      "conducteur_retour": "D.D",
      "conducteur_aller_name": "Driss",
      "conducteur_retour_name": "Driss",
      "conducteur_complet": "D.D",
      "ligne_originale": 71,
      "feuille_source": "Janvier",
      "geocoding_depart": {
        "address": "Rte d'Hermance 347, 1247 Anières, Switzerland",
        "lat": 46.2806955,
        "lng": 6.226785,
        "status": "OK"
      },
      "geocoding_arrivee": {
        "address": "Chem. du Nant-d'Aisy 45, 1247 Anières, Switzerland",
        "lat": 46.27337910000001,
        "lng": 6.219508599999999,
        "status": "OK"
      }
    },
    {
      "nom_prenom": "Madame DELEGLISE HUNZIKER Isabelle",
      "date": "14.01.2025",
      "heure_depart_aller": "08:00",
      "heure_depart_retour": null,
      "type_course": "A/R",
      "adresse_depart": "Rue de Frémis 11, 1241 Puplinge",
      "adresse_arrivee": "Rue Gabrielle-Perret-Gentil 4, 1205 Genève",
      "conducteur_aller": "Y.L",
      "conducteur_retour": "Y.L",
      "conducteur_aller_name": "Y.L",
      "conducteur_retour_name": "Y.L",
      "conducteur_complet": "Y.L",
      "ligne_originale": 72,
      "feuille_source": "Janvier",
      "geocoding_depart": {
        "address": "Rue de Frémis 11, 1241 Puplinge, Switzerland",
        "lat": 46.2113816,
        "lng": 6.2304529,
        "status": "OK"
      },
      "geocoding_arrivee": {
        "address": "Rue Gabrielle-Perret-Gentil 4, 1205 Genève, Switzerland",
        "lat": 46.1931277,
        "lng": 6.1491963,
        "status": "OK"
      }
    },
    {
      "nom_prenom": "Madame STAUFFER Gisèle",
      "date": "14.01.2025",
      "heure_depart_aller": "09:00",
      "heure_depart_retour": "16:00",
      "type_course": "A/R",
      "adresse_depart": "Chemin des Princes 8C, 1222 Vesenaz",
      "adresse_arrivee": "Route d'Hermance 347, 1247 Anières",
      "conducteur_aller": "J.B",
      "conducteur_retour": "J.B",
      "conducteur_aller_name": "Jozeph",
      "conducteur_retour_name": "Jozeph",
      "conducteur_complet": "J.B",
      "ligne_originale": 73,
      "feuille_source": "Janvier",
      "geocoding_depart": {
        "address": "Chem. des Princes 8C, 1223 Vésenaz, Switzerland",
        "lat": 46.2347905,
        "lng": 6.1972324,
        "status": "OK"
      },
      "geocoding_arrivee": {
        "address": "Rte d'Hermance 347, 1247 Anières, Switzerland",
        "lat": 46.2806955,
        "lng": 6.226785,
        "status": "OK"
      }
    },
    {
      "nom_prenom": "Madame DESBIOLLES Thérèse",
      "date": "14.01.2025",
      "heure_depart_aller": "09:45",
      "heure_depart_retour": "11:30",
      "type_course": "A/R",
      "adresse_depart": "Chemin de Trémoulin 10, 1252 Meinier",
      "adresse_arrivee": "Route de Thonon 65, 1222 Vésenaz",
      "conducteur_aller": "J.B",
      "conducteur_retour": "J.B",
      "conducteur_aller_name": "Jozeph",
      "conducteur_retour_name": "Jozeph",
      "conducteur_complet": "J.B",
      "ligne_originale": 74,
      "feuille_source": "Janvier",
      "geocoding_depart": {
        "address": "Chem. de Trémoulin 10, 1252 Meinier, Switzerland",
        "lat": 46.2430998,
        "lng": 6.2333126,
        "status": "OK"
      },
      "geocoding_arrivee": {
        "address": "Vésenaz, 1222 Collonge-Bellerive, Switzerland",
        "lat": 46.23936,
        "lng": 6.19754,
        "status": "OK"
      }
    },
    {
      "nom_prenom": "Madame MENETREY Sylvie",
      "date": "14.01.2025",
      "heure_depart_aller": "10:15",
      "heure_depart_retour": null,
      "type_course": "A/R",
      "adresse_depart": "Avenue Bois-de-la-Chapelle 69, 1213 Onex",
      "adresse_arrivee": "Rue des Bains 35, 1205 Genève",
      "conducteur_aller": "J.B",
      "conducteur_retour": "J.B",
      "conducteur_aller_name": "Jozeph",
      "conducteur_retour_name": "Jozeph",
      "conducteur_complet": "J.B",
      "ligne_originale": 75,
      "feuille_source": "Janvier",
      "geocoding_depart": {
        "address": "Av. du, Av. Bois-de-la-Chapelle 69, 1213 Onex, Switzerland",
        "lat": 46.18868310000001,
        "lng": 6.102137099999999,
        "status": "OK"
      },
      "geocoding_arrivee": {
        "address": "Rue des Bains 35, 1205 Genève, Switzerland",
        "lat": 46.1988797,
        "lng": 6.1370416,
        "status": "OK"
      }
    },
    {
      "nom_prenom": "Monsieur GROBET Jean-Pierre",
      "date": "14.01.2025",
      "heure_depart_aller": "10:15",
      "heure_depart_retour": null,
      "type_course": "A/R",
      "adresse_depart": "Route d'Hermance 383, 1247 Anières",
      "adresse_arrivee": "Rue Gabrielle-Perret-Gentil 4, 1205 Genève",
      "conducteur_aller": "Y.L",
      "conducteur_retour": "Y.L",
      "conducteur_aller_name": "Y.L",
      "conducteur_retour_name": "Y.L",
      "conducteur_complet": "Y.L",
      "ligne_originale": 76,
      "feuille_source": "Janvier",
      "geocoding_depart": {
        "address": "Rte d'Hermance 383, 1247 Anières, Switzerland",
        "lat": 46.2859774,
        "lng": 6.230993,
        "status": "OK"
      },
      "geocoding_arrivee": {
        "address": "Rue Gabrielle-Perret-Gentil 4, 1205 Genève, Switzerland",
        "lat": 46.1931277,
        "lng": 6.1491963,
        "status": "OK"
      }
    },
    {
      "nom_prenom": "Monsieur ARLOT Gérard",
      "date": "14.01.2025",
      "heure_depart_aller": "10:30",
      "heure_depart_retour": null,
      "type_course": "A/R",
      "adresse_depart": "Chemin des Courbes 9, 1247 Anières",
      "adresse_arrivee": "Rue Gabrielle-Perret-Gentil 4, 1205 Genève",
      "conducteur_aller": "D.D",
      "conducteur_retour": "D.D",
      "conducteur_aller_name": "Driss",
      "conducteur_retour_name": "Driss",
      "conducteur_complet": "D.D",
      "ligne_originale": 77,
      "feuille_source": "Janvier",
      "geocoding_depart": {
        "address": "Chem. des Courbes 9, 1247 Anières, Switzerland",
        "lat": 46.2800252,
        "lng": 6.229706999999999,
        "status": "OK"
      },
      "geocoding_arrivee": {
        "address": "Rue Gabrielle-Perret-Gentil 4, 1205 Genève, Switzerland",
        "lat": 46.1931277,
        "lng": 6.1491963,
        "status": "OK"
      }
    },
    {
      "nom_prenom": "Madame DELLEY Lucille",
      "date": "14.01.2025",
      "heure_depart_aller": "10:30",
      "heure_depart_retour": null,
      "type_course": "A",
      "adresse_depart": "Chemin des Courbes 9, 1247 Anières",
      "adresse_arrivee": "Rue Gabrielle-Perret-Gentil 4, 1205 Genève",
      "conducteur_aller": "D.D",
      "conducteur_retour": "D.D",
      "conducteur_aller_name": "Driss",
      "conducteur_retour_name": "Driss",
      "conducteur_complet": "D.D",
      "ligne_originale": 78,
      "feuille_source": "Janvier",
      "geocoding_depart": {
        "address": "Chem. des Courbes 9, 1247 Anières, Switzerland",
        "lat": 46.2800252,
        "lng": 6.229706999999999,
        "status": "OK"
      },
      "geocoding_arrivee": {
        "address": "Rue Gabrielle-Perret-Gentil 4, 1205 Genève, Switzerland",
        "lat": 46.1931277,
        "lng": 6.1491963,
        "status": "OK"
      }
    },
    {
      "nom_prenom": "Madame PISANO Bianca",
      "date": "14.01.2025",
      "heure_depart_aller": "12:30",
      "heure_depart_retour": null,
      "type_course": "A/R",
      "adresse_depart": "Rue de Lyon 51, 1203 Genève",
      "adresse_arrivee": "Rue Gabrielle-Perret-Gentil 4, 1205 Genève",
      "conducteur_aller": "Y.L",
      "conducteur_retour": "J.B",
      "conducteur_aller_name": "Y.L",
      "conducteur_retour_name": "Jozeph",
      "conducteur_complet": "Y.L/J.B",
      "ligne_originale": 79,
      "feuille_source": "Janvier",
      "geocoding_depart": {
        "address": "Rue de Lyon 51, 1203 Genève, Switzerland",
        "lat": 46.2085486,
        "lng": 6.1334349,
        "status": "OK"
      },
      "geocoding_arrivee": {
        "address": "Rue Gabrielle-Perret-Gentil 4, 1205 Genève, Switzerland",
        "lat": 46.1931277,
        "lng": 6.1491963,
        "status": "OK"
      }
    },
    {
      "nom_prenom": "Madame ROD Céline",
      "date": "14.01.2025",
      "heure_depart_aller": "13:30",
      "heure_depart_retour": "18:00",
      "type_course": "A/R",
      "adresse_depart": "Chemin du Pré-du-Couvent 3b, 1224 Chêne-Bougeries",
      "adresse_arrivee": "Rue Gabrielle-Perret-Gentil 4, 1205 Genève",
      "conducteur_aller": "D.D",
      "conducteur_retour": "D.D",
      "conducteur_aller_name": "Driss",
      "conducteur_retour_name": "Driss",
      "conducteur_complet": "D.D",
      "ligne_originale": 80,
      "feuille_source": "Janvier",
      "geocoding_depart": {
        "address": "Chem. du Pré-du-Couvent 3b, 1224 Chêne-Bougeries, Switzerland",
        "lat": 46.2032549,
        "lng": 6.1835626,
        "status": "OK"
      },
      "geocoding_arrivee": {
        "address": "Rue Gabrielle-Perret-Gentil 4, 1205 Genève, Switzerland",
        "lat": 46.1931277,
        "lng": 6.1491963,
        "status": "OK"
      }
    },
    {
      "nom_prenom": "Madame ELMER-DEVE Françoise",
      "date": "14.01.2025",
      "heure_depart_aller": "13:45",
      "heure_depart_retour": null,
      "type_course": "A/R",
      "adresse_depart": "Chemin des Courbes 9, 1247 Anières",
      "adresse_arrivee": "Rue Gabrielle-Perret-Gentil 4, 1205 Genève",
      "conducteur_aller": "Y.L",
      "conducteur_retour": "Y.L",
      "conducteur_aller_name": "Y.L",
      "conducteur_retour_name": "Y.L",
      "conducteur_complet": "Y.L",
      "ligne_originale": 81,
      "feuille_source": "Janvier",
      "geocoding_depart": {
        "address": "Chem. des Courbes 9, 1247 Anières, Switzerland",
        "lat": 46.2800252,
        "lng": 6.229706999999999,
        "status": "OK"
      },
      "geocoding_arrivee": {
        "address": "Rue Gabrielle-Perret-Gentil 4, 1205 Genève, Switzerland",
        "lat": 46.1931277,
        "lng": 6.1491963,
        "status": "OK"
      }
    },
    {
      "nom_prenom": "Madame LAVOISIER Sonia",
      "date": "14.01.2025",
      "heure_depart_aller": "14:15",
      "heure_depart_retour": null,
      "type_course": "A/R",
      "adresse_depart": "Chemin des Courbes 9, 1247 Anières",
      "adresse_arrivee": "Chemin Thury 7B, 1206 Genève",
      "conducteur_aller": "J.B",
      "conducteur_retour": "J.B",
      "conducteur_aller_name": "Jozeph",
      "conducteur_retour_name": "Jozeph",
      "conducteur_complet": "J.B",
      "ligne_originale": 82,
      "feuille_source": "Janvier",
      "geocoding_depart": {
        "address": "Chem. des Courbes 9, 1247 Anières, Switzerland",
        "lat": 46.2800252,
        "lng": 6.229706999999999,
        "status": "OK"
      },
      "geocoding_arrivee": {
        "address": "Chem. Thury 7b, 1206 Genève, Switzerland",
        "lat": 46.191316,
        "lng": 6.1510094,
        "status": "OK"
      }
    },
    {
      "nom_prenom": "Madame MOLLARD Marguerite",
      "date": "14.01.2025",
      "heure_depart_aller": "14:30",
      "heure_depart_retour": null,
      "type_course": "A/R",
      "adresse_depart": "Chemin des Campanules 4, 1219 Aïre",
      "adresse_arrivee": "Avenue Cardinal-Mermillod 1, 1227 Carouge",
      "conducteur_aller": "D.D",
      "conducteur_retour": "D.D",
      "conducteur_aller_name": "Driss",
      "conducteur_retour_name": "Driss",
      "conducteur_complet": "D.D",
      "ligne_originale": 83,
      "feuille_source": "Janvier",
      "geocoding_depart": {
        "address": "Chem. des Campanules 4, 1219 Aïre, Switzerland",
        "lat": 46.1974262,
        "lng": 6.0988071,
        "status": "OK"
      },
      "geocoding_arrivee": {
        "address": "Av. Cardinal-Mermillod 1, 1227 Carouge, Switzerland",
        "lat": 46.18664709999999,
        "lng": 6.1428197,
        "status": "OK"
      }
    },
    {
      "nom_prenom": "Monsieur REICHENBACH Hansruedi",
      "date": "14.01.2025",
      "heure_depart_aller": "15:00",
      "heure_depart_retour": null,
      "type_course": "A/R",
      "adresse_depart": "Chemin du Banc-Bénit 36, 1212 Petit-Lancy",
      "adresse_arrivee": "Chemin du Pont-Bochet 3, 1226 Thônex",
      "conducteur_aller": "Y.L",
      "conducteur_retour": "Y.L",
      "conducteur_aller_name": "Y.L",
      "conducteur_retour_name": "Y.L",
      "conducteur_complet": "Y.L",
      "ligne_originale": 84,
      "feuille_source": "Janvier",
      "geocoding_depart": {
        "address": "Chem. du Banc-Bénit 36, 1213 Petit-Lancy, Switzerland",
        "lat": 46.1860347,
        "lng": 6.117513199999999,
        "status": "OK"
      },
      "geocoding_arrivee": {
        "address": "Chem. du Pont-Bochet 3, 1226 Thônex, Switzerland",
        "lat": 46.2084229,
        "lng": 6.215834,
        "status": "OK"
      }
    },
    {
      "nom_prenom": "Madame MENETREY Sylvie",
      "date": "15.01.2025",
      "heure_depart_aller": "09:00",
      "heure_depart_retour": null,
      "type_course": "A/R",
      "adresse_depart": "Avenue Bois-de-la-Chapelle 69, 1213 Onex",
      "adresse_arrivee": "Rue des Bains 35, 1205 Genève",
      "conducteur_aller": "J.B",
      "conducteur_retour": "J.B",
      "conducteur_aller_name": "Jozeph",
      "conducteur_retour_name": "Jozeph",
      "conducteur_complet": "J.B",
      "ligne_originale": 85,
      "feuille_source": "Janvier",
      "geocoding_depart": {
        "address": "Av. du, Av. Bois-de-la-Chapelle 69, 1213 Onex, Switzerland",
        "lat": 46.18868310000001,
        "lng": 6.102137099999999,
        "status": "OK"
      },
      "geocoding_arrivee": {
        "address": "Rue des Bains 35, 1205 Genève, Switzerland",
        "lat": 46.1988797,
        "lng": 6.1370416,
        "status": "OK"
      }
    },
    {
      "nom_prenom": "Madame REYTAN Catherine",
      "date": "15.01.2025",
      "heure_depart_aller": "09:15",
      "heure_depart_retour": "16:00",
      "type_course": "A/R",
      "adresse_depart": "Chemin des Ramiers 9, 1245 Collonge-Bellerive",
      "adresse_arrivee": "Route d'Hermance 347, 1247 Anières",
      "conducteur_aller": "D.D",
      "conducteur_retour": "D.D",
      "conducteur_aller_name": "Driss",
      "conducteur_retour_name": "Driss",
      "conducteur_complet": "D.D",
      "ligne_originale": 86,
      "feuille_source": "Janvier",
      "geocoding_depart": {
        "address": "Chem. des Ramiers 9, 1245 Collonge-Bellerive, Switzerland",
        "lat": 46.2612114,
        "lng": 6.211791499999999,
        "status": "OK"
      },
      "geocoding_arrivee": {
        "address": "Rte d'Hermance 347, 1247 Anières, Switzerland",
        "lat": 46.2806955,
        "lng": 6.226785,
        "status": "OK"
      }
    },
    {
      "nom_prenom": "Monsieur RUEDIN Alexandre",
      "date": "15.01.2025",
      "heure_depart_aller": "09:45",
      "heure_depart_retour": null,
      "type_course": "A/R",
      "adresse_depart": "Chemin des Courbes 9, 1247 Anières",
      "adresse_arrivee": "Rue Gabrielle-Perret-Gentil 4, 1205 Genève",
      "conducteur_aller": "D.D",
      "conducteur_retour": "D.D",
      "conducteur_aller_name": "Driss",
      "conducteur_retour_name": "Driss",
      "conducteur_complet": "D.D",
      "ligne_originale": 87,
      "feuille_source": "Janvier",
      "geocoding_depart": {
        "address": "Chem. des Courbes 9, 1247 Anières, Switzerland",
        "lat": 46.2800252,
        "lng": 6.229706999999999,
        "status": "OK"
      },
      "geocoding_arrivee": {
        "address": "Rue Gabrielle-Perret-Gentil 4, 1205 Genève, Switzerland",
        "lat": 46.1931277,
        "lng": 6.1491963,
        "status": "OK"
      }
    },
    {
      "nom_prenom": "Monsieur CHAMAY André",
      "date": "15.01.2025",
      "heure_depart_aller": "10:00",
      "heure_depart_retour": null,
      "type_course": "A/R",
      "adresse_depart": "Chemin du Château-de-Bellerive 14, 1245 Collonge-Bellerive",
      "adresse_arrivee": "Rue Jean-Violette 3/5, 1205 Genève",
      "conducteur_aller": "Y.L",
      "conducteur_retour": "Y.L",
      "conducteur_aller_name": "Y.L",
      "conducteur_retour_name": "Y.L",
      "conducteur_complet": "Y.L",
      "ligne_originale": 88,
      "feuille_source": "Janvier",
      "geocoding_depart": {
        "address": "Chem. Château-de-Bellerive 14, 1245 Collonge-Bellerive, Switzerland",
        "lat": 46.2550075,
        "lng": 6.203085199999999,
        "status": "OK"
      },
      "geocoding_arrivee": {
        "address": "Rue Jean-Violette 3/5, 1205 Genève, Switzerland",
        "lat": 46.1941825,
        "lng": 6.1441848,
        "status": "OK"
      }
    },
    {
      "nom_prenom": "Madame STAUFFER Gisèle",
      "date": "15.01.2025",
      "heure_depart_aller": "12:30",
      "heure_depart_retour": null,
      "type_course": "A/R",
      "adresse_depart": "Chemin des Princes 8C, 1222 Vesenaz",
      "adresse_arrivee": "Route de Thonon 55, 1222 Vésenaz",
      "conducteur_aller": "Y.L",
      "conducteur_retour": "Y.L",
      "conducteur_aller_name": "Y.L",
      "conducteur_retour_name": "Y.L",
      "conducteur_complet": "Y.L",
      "ligne_originale": 89,
      "feuille_source": "Janvier",
      "geocoding_depart": {
        "address": "Chem. des Princes 8C, 1223 Vésenaz, Switzerland",
        "lat": 46.2347905,
        "lng": 6.1972324,
        "status": "OK"
      },
      "geocoding_arrivee": {
        "address": "Rte de Thonon 55, 1222 Vésenaz, Switzerland",
        "lat": 46.2403388,
        "lng": 6.1986609,
        "status": "OK"
      }
    },
    {
      "nom_prenom": "Madame GRIFFITHS Gertrud",
      "date": "15.01.2025",
      "heure_depart_aller": "13:00",
      "heure_depart_retour": null,
      "type_course": "A/R",
      "adresse_depart": "Chemin des Courbes 9, 1247 Anières",
      "adresse_arrivee": "Rue Alcid Jentzer 22, 1205 Genève",
      "conducteur_aller": "D.D",
      "conducteur_retour": "D.D",
      "conducteur_aller_name": "Driss",
      "conducteur_retour_name": "Driss",
      "conducteur_complet": "D.D",
      "ligne_originale": 90,
      "feuille_source": "Janvier",
      "geocoding_depart": {
        "address": "Chem. des Courbes 9, 1247 Anières, Switzerland",
        "lat": 46.2800252,
        "lng": 6.229706999999999,
        "status": "OK"
      },
      "geocoding_arrivee": {
        "address": "Rue Alcide-Jentzer 22, 1205 Genève, Switzerland",
        "lat": 46.1910579,
        "lng": 6.1483434,
        "status": "OK"
      }
    },
    {
      "nom_prenom": "Monsieur ALEXANDRE Pierre",
      "date": "15.01.2025",
      "heure_depart_aller": "13:00",
      "heure_depart_retour": "16:30",
      "type_course": "A/R",
      "adresse_depart": "Chemin Gustave-Rochette 14, 1213 Onex",
      "adresse_arrivee": "Route de Chancy 126, 1213 Onex",
      "conducteur_aller": "J.B",
      "conducteur_retour": "J.B",
      "conducteur_aller_name": "Jozeph",
      "conducteur_retour_name": "Jozeph",
      "conducteur_complet": "J.B",
      "ligne_originale": 91,
      "feuille_source": "Janvier",
      "geocoding_depart": {
        "address": "EMS Fondation Butini, Chem. Gustave-Rochette 14, 1213 Onex, Switzerland",
        "lat": 46.1823697,
        "lng": 6.101874599999999,
        "status": "OK"
      },
      "geocoding_arrivee": {
        "address": "1213 Onex, Switzerland",
        "lat": 46.1945732,
        "lng": 6.1110751,
        "status": "OK"
      }
    },
    {
      "nom_prenom": "Madame ROSENTHAL Gisèle",
      "date": "15.01.2025",
      "heure_depart_aller": "14:00",
      "heure_depart_retour": null,
      "type_course": "A",
      "adresse_depart": "Chemin des Courbes 9, 1247 Anières",
      "adresse_arrivee": "Place du Cirque 4, 1204 Genève",
      "conducteur_aller": "Y.L",
      "conducteur_retour": "Y.L",
      "conducteur_aller_name": "Y.L",
      "conducteur_retour_name": "Y.L",
      "conducteur_complet": "Y.L",
      "ligne_originale": 92,
      "feuille_source": "Janvier",
      "geocoding_depart": {
        "address": "Chem. des Courbes 9, 1247 Anières, Switzerland",
        "lat": 46.2800252,
        "lng": 6.229706999999999,
        "status": "OK"
      },
      "geocoding_arrivee": {
        "address": "Pl. du Cirque 4, 1204 Genève, Switzerland",
        "lat": 46.2011731,
        "lng": 6.1395598,
        "status": "OK"
      }
    },
    {
      "nom_prenom": "Madame ROD Céline",
      "date": "15.01.2025",
      "heure_depart_aller": "14:00",
      "heure_depart_retour": null,
      "type_course": "A",
      "adresse_depart": "Chemin du Pré-du-Couvent 3b, 1224 Chêne-Bougeries",
      "adresse_arrivee": "Rue Alberto-Giacometti 23, 1218 Grand-Saconnex",
      "conducteur_aller": "J.B",
      "conducteur_retour": "J.B",
      "conducteur_aller_name": "Jozeph",
      "conducteur_retour_name": "Jozeph",
      "conducteur_complet": "J.B",
      "ligne_originale": 93,
      "feuille_source": "Janvier",
      "geocoding_depart": {
        "address": "Chem. du Pré-du-Couvent 3b, 1224 Chêne-Bougeries, Switzerland",
        "lat": 46.2032549,
        "lng": 6.1835626,
        "status": "OK"
      },
      "geocoding_arrivee": {
        "address": "Rue Alberto Giacometti 23, 1218 Le Grand-Saconnex, Switzerland",
        "lat": 46.2277962,
        "lng": 6.118011999999999,
        "status": "OK"
      }
    },
    {
      "nom_prenom": "Monsieur FLAKS Marco",
      "date": "15.01.2025",
      "heure_depart_aller": "14:30",
      "heure_depart_retour": null,
      "type_course": "A/R",
      "adresse_depart": "Chemin des Courbes 9, 1247 Anières",
      "adresse_arrivee": "Rue Gabrielle-Perret-Gentil 4, 1205 Genève",
      "conducteur_aller": "D.D",
      "conducteur_retour": "D.D",
      "conducteur_aller_name": "Driss",
      "conducteur_retour_name": "Driss",
      "conducteur_complet": "D.D",
      "ligne_originale": 94,
      "feuille_source": "Janvier",
      "geocoding_depart": {
        "address": "Chem. des Courbes 9, 1247 Anières, Switzerland",
        "lat": 46.2800252,
        "lng": 6.229706999999999,
        "status": "OK"
      },
      "geocoding_arrivee": {
        "address": "Rue Gabrielle-Perret-Gentil 4, 1205 Genève, Switzerland",
        "lat": 46.1931277,
        "lng": 6.1491963,
        "status": "OK"
      }
    },
    {
      "nom_prenom": "Madame BELAIS",
      "date": "15.01.2025",
      "heure_depart_aller": "14:40",
      "heure_depart_retour": "16:00",
      "type_course": "A/R",
      "adresse_depart": "Route de chêne 104, 1224 Chêne-Bougeries",
      "adresse_arrivee": "Route de Vessy 41, 1234 Vessy",
      "conducteur_aller": "K.A",
      "conducteur_retour": "K.A",
      "conducteur_aller_name": "Khalid",
      "conducteur_retour_name": "Khalid",
      "conducteur_complet": "K.A",
      "ligne_originale": 95,
      "feuille_source": "Janvier",
      "geocoding_depart": {
        "address": "Rte de Chêne 104, 1224 Chêne-Bougeries, Switzerland",
        "lat": 46.1980021,
        "lng": 6.180838899999999,
        "status": "OK"
      },
      "geocoding_arrivee": {
        "address": "Rte de Vessy 41, 1234 Vessy, Switzerland",
        "lat": 46.18048539999999,
        "lng": 6.1703172,
        "status": "OK"
      }
    },
    {
      "nom_prenom": "Madame HAUSER Ariane",
      "date": "16.01.2025",
      "heure_depart_aller": "08:00",
      "heure_depart_retour": null,
      "type_course": "A/R",
      "adresse_depart": "Chemin des Courbes 9, 1247 Anières",
      "adresse_arrivee": "Chemin des Grangettes 7, 1224 Chêne-Bougeries",
      "conducteur_aller": "Y.L",
      "conducteur_retour": "Y.L",
      "conducteur_aller_name": "Y.L",
      "conducteur_retour_name": "Y.L",
      "conducteur_complet": "Y.L",
      "ligne_originale": 96,
      "feuille_source": "Janvier",
      "geocoding_depart": {
        "address": "Chem. des Courbes 9, 1247 Anières, Switzerland",
        "lat": 46.2800252,
        "lng": 6.229706999999999,
        "status": "OK"
      },
      "geocoding_arrivee": {
        "address": "Chem. des Grangettes 7, 1224 Chêne-Bougeries, Switzerland",
        "lat": 46.199808,
        "lng": 6.1819462,
        "status": "OK"
      }
    },
    {
      "nom_prenom": "Madame KHALEF Hamida",
      "date": "16.01.2025",
      "heure_depart_aller": "08:45",
      "heure_depart_retour": null,
      "type_course": "A/R",
      "adresse_depart": "Rue du Couchant 15, 1248 Hermance",
      "adresse_arrivee": "Route de Thonons 61, 1222 Vesenaz",
      "conducteur_aller": "J.B",
      "conducteur_retour": "J.B",
      "conducteur_aller_name": "Jozeph",
      "conducteur_retour_name": "Jozeph",
      "conducteur_complet": "J.B",
      "ligne_originale": 97,
      "feuille_source": "Janvier",
      "geocoding_depart": {
        "address": "Rue du Couchant 15, 1248 Hermance, Switzerland",
        "lat": 46.301346,
        "lng": 6.2455003,
        "status": "OK"
      },
      "geocoding_arrivee": {
        "address": "Vésenaz, 1222 Collonge-Bellerive, Switzerland",
        "lat": 46.23936,
        "lng": 6.19754,
        "status": "OK"
      }
    },
    {
      "nom_prenom": "Madame REYTAN Catherine",
      "date": "16.01.2025",
      "heure_depart_aller": "09:15",
      "heure_depart_retour": "16:00",
      "type_course": "A/R",
      "adresse_depart": "Chemin des Ramiers 9, 1245 Collonge-Bellerive",
      "adresse_arrivee": "Route d'Hermance 347, 1247 Anières",
      "conducteur_aller": "J.B",
      "conducteur_retour": "J.B",
      "conducteur_aller_name": "Jozeph",
      "conducteur_retour_name": "Jozeph",
      "conducteur_complet": "J.B",
      "ligne_originale": 98,
      "feuille_source": "Janvier",
      "geocoding_depart": {
        "address": "Chem. des Ramiers 9, 1245 Collonge-Bellerive, Switzerland",
        "lat": 46.2612114,
        "lng": 6.211791499999999,
        "status": "OK"
      },
      "geocoding_arrivee": {
        "address": "Rte d'Hermance 347, 1247 Anières, Switzerland",
        "lat": 46.2806955,
        "lng": 6.226785,
        "status": "OK"
      }
    },
    {
      "nom_prenom": "Madame PETITE-CAVIEZEL Maria",
      "date": "16.01.2025",
      "heure_depart_aller": "10:00",
      "heure_depart_retour": null,
      "type_course": "A/R",
      "adresse_depart": "Chemin des Courbes 9, 1247 Anières",
      "adresse_arrivee": "Chemin Thury 7B, 1206 Genève",
      "conducteur_aller": "Y.L",
      "conducteur_retour": "Y.L",
      "conducteur_aller_name": "Y.L",
      "conducteur_retour_name": "Y.L",
      "conducteur_complet": "Y.L",
      "ligne_originale": 99,
      "feuille_source": "Janvier",
      "geocoding_depart": {
        "address": "Chem. des Courbes 9, 1247 Anières, Switzerland",
        "lat": 46.2800252,
        "lng": 6.229706999999999,
        "status": "OK"
      },
      "geocoding_arrivee": {
        "address": "Chem. Thury 7b, 1206 Genève, Switzerland",
        "lat": 46.191316,
        "lng": 6.1510094,
        "status": "OK"
      }
    },
    {
      "nom_prenom": "Madame GUTTIEREZ-VALENTE Maria-Pilar",
      "date": "16.01.2025",
      "heure_depart_aller": "10:00",
      "heure_depart_retour": null,
      "type_course": "A",
      "adresse_depart": "Chemin du Pont-Bochet 31226 Thônex",
      "adresse_arrivee": "Chemin du Champs-d'Anier 15, 1209 Genève",
      "conducteur_aller": "D.D",
      "conducteur_retour": "D.D",
      "conducteur_aller_name": "Driss",
      "conducteur_retour_name": "Driss",
      "conducteur_complet": "D.D",
      "ligne_originale": 100,
      "feuille_source": "Janvier",
      "geocoding_depart": {
        "address": "Chem. du Pont-Bochet, 1226 Thônex, Switzerland",
        "lat": 46.20903,
        "lng": 6.21568,
        "status": "OK"
      },
      "geocoding_arrivee": {
        "address": "1209 Geneva, Switzerland",
        "lat": 46.2214936,
        "lng": 6.1238396,
        "status": "OK"
      }
    },
    {
      "nom_prenom": "Madame NIKLAN Renée",
      "date": "16.01.2025",
      "heure_depart_aller": "10:00",
      "heure_depart_retour": null,
      "type_course": "A/R",
      "adresse_depart": "Chemin du Nant-d'Argent 3, 1223 Cologny",
      "adresse_arrivee": "Rue Gabrielle-Perret-Gentil 4, 1205 Genève",
      "conducteur_aller": "D.J",
      "conducteur_retour": "D.J",
      "conducteur_aller_name": "Drin",
      "conducteur_retour_name": "Drin",
      "conducteur_complet": "D.J",
      "ligne_originale": 101,
      "feuille_source": "Janvier",
      "geocoding_depart": {
        "address": "Chem. du Nant-d'Argent 3, 1223 Cologny, Switzerland",
        "lat": 46.2296915,
        "lng": 6.1880162,
        "status": "OK"
      },
      "geocoding_arrivee": {
        "address": "Rue Gabrielle-Perret-Gentil 4, 1205 Genève, Switzerland",
        "lat": 46.1931277,
        "lng": 6.1491963,
        "status": "OK"
      }
    },
    {
      "nom_prenom": "Madame STAUFFER Gisèle",
      "date": "16.01.2025",
      "heure_depart_aller": "10:15",
      "heure_depart_retour": "12:00",
      "type_course": "A/R",
      "adresse_depart": "Chemin des Princes 8C, 1222 Vesenaz",
      "adresse_arrivee": "Rue de la Terrassière 44, 1207 Genève",
      "conducteur_aller": "J.B",
      "conducteur_retour": "D.J",
      "conducteur_aller_name": "Jozeph",
      "conducteur_retour_name": "Drin",
      "conducteur_complet": "J.B/D.J",
      "ligne_originale": 102,
      "feuille_source": "Janvier",
      "geocoding_depart": {
        "address": "Chem. des Princes 8C, 1223 Vésenaz, Switzerland",
        "lat": 46.2347905,
        "lng": 6.1972324,
        "status": "OK"
      },
      "geocoding_arrivee": {
        "address": "Rue de la Terrassière 44, 1207 Genève, Switzerland",
        "lat": 46.2001166,
        "lng": 6.1595717,
        "status": "OK"
      }
    },
    {
      "nom_prenom": "Monsieur LONGHI GUIDI Pier",
      "date": "16.01.2025",
      "heure_depart_aller": "10:45",
      "heure_depart_retour": null,
      "type_course": "A",
      "adresse_depart": "Chemin des Courbes 9, 1247 Anières",
      "adresse_arrivee": "Rue Le-Corbusier 7, 1208 Genève",
      "conducteur_aller": "K.A",
      "conducteur_retour": "K.A",
      "conducteur_aller_name": "Khalid",
      "conducteur_retour_name": "Khalid",
      "conducteur_complet": "K.A",
      "ligne_originale": 103,
      "feuille_source": "Janvier",
      "geocoding_depart": {
        "address": "Chem. des Courbes 9, 1247 Anières, Switzerland",
        "lat": 46.2800252,
        "lng": 6.229706999999999,
        "status": "OK"
      },
      "geocoding_arrivee": {
        "address": "Rue Le-Corbusier 7, 1208 Genève, Switzerland",
        "lat": 46.1944433,
        "lng": 6.169760600000001,
        "status": "OK"
      }
    },
    {
      "nom_prenom": "Madame GRIFFITHS Gertrud",
      "date": "16.01.2025",
      "heure_depart_aller": "11:30",
      "heure_depart_retour": null,
      "type_course": "A/R",
      "adresse_depart": "Chemin des Courbes 9, 1247 Anières",
      "adresse_arrivee": "Rue Gabrielle-Perret-Gentil 4, 1205 Genève",
      "conducteur_aller": "Y.L",
      "conducteur_retour": "Y.L",
      "conducteur_aller_name": "Y.L",
      "conducteur_retour_name": "Y.L",
      "conducteur_complet": "Y.L",
      "ligne_originale": 104,
      "feuille_source": "Janvier",
      "geocoding_depart": {
        "address": "Chem. des Courbes 9, 1247 Anières, Switzerland",
        "lat": 46.2800252,
        "lng": 6.229706999999999,
        "status": "OK"
      },
      "geocoding_arrivee": {
        "address": "Rue Gabrielle-Perret-Gentil 4, 1205 Genève, Switzerland",
        "lat": 46.1931277,
        "lng": 6.1491963,
        "status": "OK"
      }
    },
    {
      "nom_prenom": "Madame MENETREY Sylvie",
      "date": "16.01.2025",
      "heure_depart_aller": "12:15",
      "heure_depart_retour": null,
      "type_course": "A/R",
      "adresse_depart": "Avenue Bois-de-la-Chapelle 69, 1213 Onex",
      "adresse_arrivee": "Clinique dentaire de la Servette Avenue Wendt 60 1203 Genève",
      "conducteur_aller": "J.B",
      "conducteur_retour": "J.B",
      "conducteur_aller_name": "Jozeph",
      "conducteur_retour_name": "Jozeph",
      "conducteur_complet": "J.B",
      "ligne_originale": 105,
      "feuille_source": "Janvier",
      "geocoding_depart": {
        "address": "Av. du, Av. Bois-de-la-Chapelle 69, 1213 Onex, Switzerland",
        "lat": 46.18868310000001,
        "lng": 6.102137099999999,
        "status": "OK"
      },
      "geocoding_arrivee": {
        "address": "Av. Wendt 60, 1203 Genève, Switzerland",
        "lat": 46.213186,
        "lng": 6.1295908,
        "status": "OK"
      }
    },
    {
      "nom_prenom": "Monsieur JACOT-DESCOMBES John",
      "date": "16.01.2025",
      "heure_depart_aller": "13:00",
      "heure_depart_retour": null,
      "type_course": "A",
      "adresse_depart": "Chemin des Courbes 9, 1247 Anières",
      "adresse_arrivee": "Rue Gabrielle-Perret-Gentil 4, 1205 Genève",
      "conducteur_aller": "D.J",
      "conducteur_retour": "D.J",
      "conducteur_aller_name": "Drin",
      "conducteur_retour_name": "Drin",
      "conducteur_complet": "D.J",
      "ligne_originale": 106,
      "feuille_source": "Janvier",
      "geocoding_depart": {
        "address": "Chem. des Courbes 9, 1247 Anières, Switzerland",
        "lat": 46.2800252,
        "lng": 6.229706999999999,
        "status": "OK"
      },
      "geocoding_arrivee": {
        "address": "Rue Gabrielle-Perret-Gentil 4, 1205 Genève, Switzerland",
        "lat": 46.1931277,
        "lng": 6.1491963,
        "status": "OK"
      }
    },
    {
      "nom_prenom": "Madame DJEMAL Rosette",
      "date": "16.01.2025",
      "heure_depart_aller": "13:15",
      "heure_depart_retour": null,
      "type_course": "A/R",
      "adresse_depart": "Avenue KRIEG 40, 1208 Genève",
      "adresse_arrivee": "Rue Gabrielle-Perret-Gentil 4, 1205 Genève",
      "conducteur_aller": "K.A",
      "conducteur_retour": "K.A",
      "conducteur_aller_name": "Khalid",
      "conducteur_retour_name": "Khalid",
      "conducteur_complet": "K.A",
      "ligne_originale": 107,
      "feuille_source": "Janvier",
      "geocoding_depart": {
        "address": "Av. Krieg 40, 1208 Genève, Switzerland",
        "lat": 46.1948468,
        "lng": 6.1617754,
        "status": "OK"
      },